{"type":"FeatureCollection","features":[{"properties":{"size":24864,"school_name":"Auburn University","campus_name":"Main Campus","total_offenses":14},"type":"Feature","geometry":{"type":"Point","coordinates":[-85.4951663,32.59335739999999]}},{"properties":{"size":20503,"school_name":"Ball State University","campus_name":"Main Campus","total_offenses":18},"type":"Feature","geometry":{"type":"Point","coordinates":[-85.4070441,40.2011355]}},{"properties":{"size":444,"school_name":"Baptist Health System School of Health Professions","campus_name":"Main campus","total_offenses":2},"type":"Feature","geometry":{"type":"Point","coordinates":[-98.568129,29.516944]}},{"properties":{"size":10127,"school_name":"Bloomsburg University of Pennsylvania","campus_name":"Main Campus","total_offenses":5},"type":"Feature","geometry":{"type":"Point","coordinates":[-76.4472749,41.0081119]}},{"properties":{"size":32411,"school_name":"Boston University","campus_name":"Boston University Charles River Campus","total_offenses":10},"type":"Feature","geometry":{"type":"Point","coordinates":[-71.1053991,42.3504997]}},{"properties":{"size":3608,"school_name":"Bucknell University","campus_name":"Bucknell University- Main Campus","total_offenses":17},"type":"Feature","geometry":{"type":"Point","coordinates":[-76.88496289999999,40.9551414]}},{"properties":{"size":4827,"school_name":"Butler University","campus_name":"Butler University","total_offenses":4},"type":"Feature","geometry":{"type":"Point","coordinates":[-86.1737493346481,39.8407191]}},{"properties":{"size":16356,"school_name":"California State University-Chico","campus_name":"Main Campus","total_offenses":9},"type":"Feature","geometry":{"type":"Point","coordinates":[-121.8463457,39.7279291]}},{"properties":{"size":23060,"school_name":"California State University-Fresno","campus_name":"Main Campus","total_offenses":2},"type":"Feature","geometry":{"type":"Point","coordinates":[-119.7462505,36.8120121]}},{"properties":{"size":8243,"school_name":"California University of Pennsylvania","campus_name":"Main Campus","total_offenses":12},"type":"Feature","geometry":{"type":"Point","coordinates":[-79.887603,40.06587]}},{"properties":{"size":3534,"school_name":"Carroll University","campus_name":"Main Campus","total_offenses":3},"type":"Feature","geometry":{"type":"Point","coordinates":[-88.2279985,43.00449990000001]}},{"properties":{"size":2988,"school_name":"Carthage College","campus_name":"Main Campus","total_offenses":6},"type":"Feature","geometry":{"type":"Point","coordinates":[-87.8199047,42.62351879999999]}},{"properties":{"size":10325,"school_name":"Case Western Reserve University","campus_name":"Main Campus","total_offenses":9},"type":"Feature","geometry":{"type":"Point","coordinates":[-81.6083838,41.5043413]}},{"properties":{"size":6725,"school_name":"Catholic University of America","campus_name":"The Catholic University of America","total_offenses":2},"type":"Feature","geometry":{"type":"Point","coordinates":[-77.0002281900675,38.93890905]}},{"properties":{"size":26841,"school_name":"Central Michigan University","campus_name":"Main Campus","total_offenses":10},"type":"Feature","geometry":{"type":"Point","coordinates":[-84.7751928,43.5912126]}},{"properties":{"size":2752,"school_name":"Chaminade University of Honolulu","campus_name":"Chaminade University of Honolulu","total_offenses":2},"type":"Feature","geometry":{"type":"Point","coordinates":[-157.8073979,21.2905834]}},{"properties":{"size":3305,"school_name":"Champlain College","campus_name":"Main Campus","total_offenses":2},"type":"Feature","geometry":{"type":"Point","coordinates":[-73.2041352,44.4731165]}},{"properties":{"size":3726,"school_name":"Clarkson University","campus_name":"Main Campus","total_offenses":2},"type":"Feature","geometry":{"type":"Point","coordinates":[-74.999495,44.66271280000001]}},{"properties":{"size":2061,"school_name":"Colorado College","campus_name":"Colorado College","total_offenses":16},"type":"Feature","geometry":{"type":"Point","coordinates":[-104.823950831401,38.8480439]}},{"properties":{"size":31186,"school_name":"Colorado State University-Fort Collins","campus_name":"Main Campus","total_offenses":25},"type":"Feature","geometry":{"type":"Point","coordinates":[-105.0865473,40.573436]}},{"properties":{"size":26957,"school_name":"Columbia University in the City of New York","campus_name":"Morningside Campus","total_offenses":22},"type":"Feature","geometry":{"type":"Point","coordinates":[-73.9609548,40.8074594]}},{"properties":{"size":21593,"school_name":"Cornell University","campus_name":"Statutory and Endowed Campus","total_offenses":16},"type":"Feature","geometry":{"type":"Point","coordinates":[-76.4735027,42.4534492]}},{"properties":{"size":8019,"school_name":"Creighton University","campus_name":"Main Campus","total_offenses":4},"type":"Feature","geometry":{"type":"Point","coordinates":[-95.9449872,41.2654998]}},{"properties":{"size":3074,"school_name":"Curry College","campus_name":"Main Campus","total_offenses":6},"type":"Feature","geometry":{"type":"Point","coordinates":[-71.1148817,42.2407202]}},{"properties":{"size":27910,"school_name":"Cuyahoga Community College District","campus_name":"Metropolitan Campus","total_offenses":12},"type":"Feature","geometry":{"type":"Point","coordinates":[-81.5015602,41.44579229999999]}},{"properties":{"size":6342,"school_name":"Dartmouth College","campus_name":"Dartmouth College  Main Campus","total_offenses":35},"type":"Feature","geometry":{"type":"Point","coordinates":[-72.2886934,43.70444059999999]}},{"properties":{"size":2304,"school_name":"DePauw University","campus_name":"Main Campus","total_offenses":15},"type":"Feature","geometry":{"type":"Point","coordinates":[-86.861622,39.640397]}},{"properties":{"size":1183,"school_name":"Dillard University","campus_name":"Dillard University","total_offenses":1},"type":"Feature","geometry":{"type":"Point","coordinates":[-90.0653676710487,29.9962374]}},{"properties":{"size":5139,"school_name":"Drake University","campus_name":"Main Campus","total_offenses":3},"type":"Feature","geometry":{"type":"Point","coordinates":[-93.6580638,41.60128629999999]}},{"properties":{"size":4649,"school_name":"Drury University","campus_name":"Drury University","total_offenses":2},"type":"Feature","geometry":{"type":"Point","coordinates":[-93.2862464,37.2184775]}},{"properties":{"size":26887,"school_name":"East Carolina University","campus_name":"East Carolina University","total_offenses":11},"type":"Feature","geometry":{"type":"Point","coordinates":[-77.367156511714,35.60737685]}},{"properties":{"size":23447,"school_name":"Eastern Michigan University","campus_name":"Eastern Michigan University","total_offenses":13},"type":"Feature","geometry":{"type":"Point","coordinates":[-83.6242913284779,42.2505788]}},{"properties":{"size":4157,"school_name":"Eastern Oregon University","campus_name":"Main Campus","total_offenses":7},"type":"Feature","geometry":{"type":"Point","coordinates":[-118.088511,45.31984599999999]}},{"properties":{"size":9755,"school_name":"Fashion Institute of Technology","campus_name":"FASHION INSTITUTE OF TECHNOLOGY","total_offenses":2},"type":"Feature","geometry":{"type":"Point","coordinates":[-73.9945506,40.7472611]}},{"properties":{"size":14707,"school_name":"Ferris State University","campus_name":"Main Campus","total_offenses":6},"type":"Feature","geometry":{"type":"Point","coordinates":[-85.4856344,43.68484319999999]}},{"properties":{"size":14077,"school_name":"Florida Gulf Coast University","campus_name":"Main Campus","total_offenses":4},"type":"Feature","geometry":{"type":"Point","coordinates":[-81.7736279,26.4640491]}},{"properties":{"size":40909,"school_name":"Florida State University","campus_name":"Main Campus","total_offenses":13},"type":"Feature","geometry":{"type":"Point","coordinates":[-84.2984889,30.4418778]}},{"properties":{"size":15097,"school_name":"Fordham University","campus_name":"Main Campus","total_offenses":8},"type":"Feature","geometry":{"type":"Point","coordinates":[-73.9852770781114,40.77105895]}},{"properties":{"size":13441,"school_name":"Fort Hays State University","campus_name":"Main Campus","total_offenses":5},"type":"Feature","geometry":{"type":"Point","coordinates":[-99.3406595,38.8736227]}},{"properties":{"size":2297,"school_name":"Franklin and Marshall College","campus_name":"Franklin and Marshall College Main Campus","total_offenses":17},"type":"Feature","geometry":{"type":"Point","coordinates":[-76.31791299999999,40.04748]}},{"properties":{"size":2953,"school_name":"Furman University","campus_name":"Main Campus","total_offenses":4},"type":"Feature","geometry":{"type":"Point","coordinates":[-82.43913669999999,34.9245893]}},{"properties":{"size":1561,"school_name":"Gallaudet University","campus_name":"Main Campus","total_offenses":20},"type":"Feature","geometry":{"type":"Point","coordinates":[-76.99238749999999,38.90842200000001]}},{"properties":{"size":25264,"school_name":"George Washington University","campus_name":"Main Campus","total_offenses":21},"type":"Feature","geometry":{"type":"Point","coordinates":[-77.0485992,38.89971450000001]}},{"properties":{"size":6551,"school_name":"Georgia College and State University","campus_name":"Milledgeville Main Campus","total_offenses":2},"type":"Feature","geometry":{"type":"Point","coordinates":[-83.2307799,33.0819816]}},{"properties":{"size":21471,"school_name":"Georgia Institute of Technology-Main Campus","campus_name":"Main Campus","total_offenses":18},"type":"Feature","geometry":{"type":"Point","coordinates":[-84.39628499999999,33.77561779999999]}},{"properties":{"size":20517,"school_name":"Georgia Southern University","campus_name":"Main Campus","total_offenses":6},"type":"Feature","geometry":{"type":"Point","coordinates":[-81.78324409999999,32.4248193]}},{"properties":{"size":2524,"school_name":"Gettysburg College","campus_name":"Main Campus","total_offenses":10},"type":"Feature","geometry":{"type":"Point","coordinates":[-77.2316189,39.8354367]}},{"properties":{"size":1850,"school_name":"Glenville State College","campus_name":"Main Campus","total_offenses":2},"type":"Feature","geometry":{"type":"Point","coordinates":[-80.83322199999999,38.9348779]}},{"properties":{"size":55497,"school_name":"Grand Canyon University","campus_name":"Grand Canyon University","total_offenses":4},"type":"Feature","geometry":{"type":"Point","coordinates":[-112.128489051441,33.5131888]}},{"properties":{"size":12448,"school_name":"Indiana State University","campus_name":"Main Campus","total_offenses":7},"type":"Feature","geometry":{"type":"Point","coordinates":[-87.407056,39.468549]}},{"properties":{"size":46817,"school_name":"Indiana University-Bloomington","campus_name":"Indiana University - Bloomington Campus","total_offenses":22},"type":"Feature","geometry":{"type":"Point","coordinates":[-86.51425479999999,39.17037860000001]}},{"properties":{"size":30488,"school_name":"Indiana University-Purdue University-Indianapolis","campus_name":"Main Campus","total_offenses":6},"type":"Feature","geometry":{"type":"Point","coordinates":[-86.176177,39.77416199999999]}},{"properties":{"size":32955,"school_name":"Iowa State University","campus_name":"Iowa State University","total_offenses":20},"type":"Feature","geometry":{"type":"Point","coordinates":[-93.6464654,42.0266187]}},{"properties":{"size":20181,"school_name":"James Madison University","campus_name":"Main Campus-Harrisonburg","total_offenses":7},"type":"Feature","geometry":{"type":"Point","coordinates":[-78.8697548,38.435092]}},{"properties":{"size":3711,"school_name":"John Carroll University","campus_name":"Main Campus","total_offenses":2},"type":"Feature","geometry":{"type":"Point","coordinates":[-81.5314425,41.4901948]}},{"properties":{"size":20918,"school_name":"Johns Hopkins University","campus_name":"JHU  HOMEWOOD  CAMPUS- BALTIMORE- MARYLAND","total_offenses":4},"type":"Feature","geometry":{"type":"Point","coordinates":[-76.6205177,39.3299013]}},{"properties":{"size":24581,"school_name":"Kansas State University","campus_name":"Main Campus","total_offenses":6},"type":"Feature","geometry":{"type":"Point","coordinates":[-94.843008910629,38.92929125]}},{"properties":{"size":28998,"school_name":"Kent State University at Kent","campus_name":"Main Campus","total_offenses":10},"type":"Feature","geometry":{"type":"Point","coordinates":[-81.34146489999999,41.1490629]}},{"properties":{"size":3521,"school_name":"Lewis & Clark College","campus_name":"Main Campus","total_offenses":12},"type":"Feature","geometry":{"type":"Point","coordinates":[-122.6774355,45.45240829999999]}},{"properties":{"size":837,"school_name":"Lincoln College of New England-Southington","campus_name":"Main Campus","total_offenses":1},"type":"Feature","geometry":{"type":"Point","coordinates":[-72.920322,41.63052]}},{"properties":{"size":655,"school_name":"Lincoln Technical Institute-East Windsor","campus_name":"Lincoln Technical Institute","total_offenses":3},"type":"Feature","geometry":{"type":"Point","coordinates":[-72.5969145,41.9234491]}},{"properties":{"size":11301,"school_name":"Massachusetts Institute of Technology","campus_name":"MIT","total_offenses":17},"type":"Feature","geometry":{"type":"Point","coordinates":[-71.0956777766393,42.3583961]}},{"properties":{"size":8510,"school_name":"Metropolitan State University","campus_name":"Main Campus","total_offenses":2},"type":"Feature","geometry":{"type":"Point","coordinates":[-93.0738391755929,44.9574968]}},{"properties":{"size":22752,"school_name":"Metropolitan State University of Denver","campus_name":"Main Campus","total_offenses":2},"type":"Feature","geometry":{"type":"Point","coordinates":[-104.984174,39.913537]}},{"properties":{"size":17901,"school_name":"Miami University-Oxford","campus_name":"Miami University-Oxford (204024)","total_offenses":20},"type":"Feature","geometry":{"type":"Point","coordinates":[-84.73087679999999,39.5105334]}},{"properties":{"size":49317,"school_name":"Michigan State University","campus_name":"Main Campus","total_offenses":30},"type":"Feature","geometry":{"type":"Point","coordinates":[-84.4821719,42.701848]}},{"properties":{"size":998,"school_name":"Michigan State University-College of Law","campus_name":"Main Campus","total_offenses":28},"type":"Feature","geometry":{"type":"Point","coordinates":[-84.4735426,42.72571529999999]}},{"properties":{"size":6975,"school_name":"Michigan Technological University","campus_name":"Main Campus","total_offenses":3},"type":"Feature","geometry":{"type":"Point","coordinates":[-88.54453149999999,47.1170514]}},{"properties":{"size":23881,"school_name":"Middle Tennessee State University","campus_name":"Main Campus","total_offenses":8},"type":"Feature","geometry":{"type":"Point","coordinates":[-86.3674048,35.84797560000001]}},{"properties":{"size":8129,"school_name":"Missouri University of Science and Technology","campus_name":"Missouri S&T","total_offenses":2},"type":"Feature","geometry":{"type":"Point","coordinates":[-91.7751663408198,37.95159385]}},{"properties":{"size":14852,"school_name":"Montana State University","campus_name":"Main Campus","total_offenses":8},"type":"Feature","geometry":{"type":"Point","coordinates":[-111.3002531,47.4884885]}},{"properties":{"size":1835,"school_name":"Mount Aloysius College","campus_name":"Main Campus","total_offenses":1},"type":"Feature","geometry":{"type":"Point","coordinates":[-78.603312,40.4595885]}},{"properties":{"size":44599,"school_name":"New York University","campus_name":"NYU Main Campus","total_offenses":9},"type":"Feature","geometry":{"type":"Point","coordinates":[-73.9964609,40.72951339999999]}},{"properties":{"size":6630,"school_name":"Niagara County Community College","campus_name":"Main Campus","total_offenses":2},"type":"Feature","geometry":{"type":"Point","coordinates":[-78.877684,43.146379]}},{"properties":{"size":6630,"school_name":"Niagara County Community College","campus_name":"Niagara Falls Culinary Institute","total_offenses":2},"type":"Feature","geometry":{"type":"Point","coordinates":[-79.0624469,43.0871076]}},{"properties":{"size":34009,"school_name":"North Carolina State University at Raleigh","campus_name":"Main Campus","total_offenses":6},"type":"Feature","geometry":{"type":"Point","coordinates":[-78.6779676,35.7686746]}},{"properties":{"size":14629,"school_name":"North Dakota State University-Main Campus","campus_name":"Main Campus","total_offenses":2},"type":"Feature","geometry":{"type":"Point","coordinates":[-96.80139539999999,46.89217829999999]}},{"properties":{"size":21138,"school_name":"Northern Illinois University","campus_name":"Main Campus","total_offenses":12},"type":"Feature","geometry":{"type":"Point","coordinates":[-88.7739086,41.9341865]}},{"properties":{"size":3275,"school_name":"Northern State University","campus_name":"Northern State University","total_offenses":1},"type":"Feature","geometry":{"type":"Point","coordinates":[-98.4825582590618,45.4505464]}},{"properties":{"size":51803,"school_name":"Northern Virginia Community College","campus_name":"Annandale Campus","total_offenses":7},"type":"Feature","geometry":{"type":"Point","coordinates":[-77.2363500664837,38.8339054]}},{"properties":{"size":51803,"school_name":"Northern Virginia Community College","campus_name":"Alexandria Campus","total_offenses":7},"type":"Feature","geometry":{"type":"Point","coordinates":[-77.1151796,38.8397685]}},{"properties":{"size":51803,"school_name":"Northern Virginia Community College","campus_name":"Loudoun Campus","total_offenses":8},"type":"Feature","geometry":{"type":"Point","coordinates":[-77.3917104909525,39.03090515]}},{"properties":{"size":51803,"school_name":"Northern Virginia Community College","campus_name":"Manassas Campus","total_offenses":4},"type":"Feature","geometry":{"type":"Point","coordinates":[-77.518088885921,38.80801965]}},{"properties":{"size":20169,"school_name":"Oakland University","campus_name":"Main Campus","total_offenses":8},"type":"Feature","geometry":{"type":"Point","coordinates":[-89.4194608,43.0739488]}},{"properties":{"size":1903,"school_name":"Oakwood University","campus_name":"Oakwood University","total_offenses":3},"type":"Feature","geometry":{"type":"Point","coordinates":[-78.6364337,35.7711468]}},{"properties":{"size":2128,"school_name":"Occidental College","campus_name":"Occidental College","total_offenses":64},"type":"Feature","geometry":{"type":"Point","coordinates":[-118.210520092645,34.1273342]}},{"properties":{"size":57466,"school_name":"Ohio State University-Main Campus","campus_name":"Main Campus","total_offenses":27},"type":"Feature","geometry":{"type":"Point","coordinates":[-83.03091429999999,40.0141905]}},{"properties":{"size":3618,"school_name":"Oklahoma State University Institute of Technology","campus_name":"Main Campus","total_offenses":2},"type":"Feature","geometry":{"type":"Point","coordinates":[-95.94052500000001,35.6278021]}},{"properties":{"size":26073,"school_name":"Oklahoma State University-Main Campus","campus_name":"Oklahoma State University - Stillwater","total_offenses":8},"type":"Feature","geometry":{"type":"Point","coordinates":[-97.07372219999999,36.12702360000001]}},{"properties":{"size":1133,"school_name":"Olivet College","campus_name":"Main Campus","total_offenses":4},"type":"Feature","geometry":{"type":"Point","coordinates":[-84.9248939,42.4431108]}},{"properties":{"size":27902,"school_name":"Oregon State University","campus_name":"Main Campus","total_offenses":17},"type":"Feature","geometry":{"type":"Point","coordinates":[-123.274906,44.564438]}},{"properties":{"size":2919,"school_name":"Otterbein University","campus_name":"Main Campus","total_offenses":4},"type":"Feature","geometry":{"type":"Point","coordinates":[-82.936435,40.125505]}},{"properties":{"size":46615,"school_name":"Pennsylvania State University-Main Campus","campus_name":"University Park Campus","total_offenses":28},"type":"Feature","geometry":{"type":"Point","coordinates":[-77.8599084,40.7982133]}},{"properties":{"size":3523,"school_name":"Philadelphia University","campus_name":"Main Campus","total_offenses":3},"type":"Feature","geometry":{"type":"Point","coordinates":[-75.1660025,39.9528505]}},{"properties":{"size":7400,"school_name":"Pittsburg State University","campus_name":"Pittsburg State University","total_offenses":2},"type":"Feature","geometry":{"type":"Point","coordinates":[-94.7036465,37.3912528]}},{"properties":{"size":1841,"school_name":"Pittsburgh Technical Institute","campus_name":"Main Campus","total_offenses":4},"type":"Feature","geometry":{"type":"Point","coordinates":[-80.188597,40.423804]}},{"properties":{"size":1081,"school_name":"Pitzer College","campus_name":"Pitzer College","total_offenses":2},"type":"Feature","geometry":{"type":"Point","coordinates":[-117.7056737,34.1037196]}},{"properties":{"size":5236,"school_name":"Plymouth State University","campus_name":"Main Campus","total_offenses":4},"type":"Feature","geometry":{"type":"Point","coordinates":[-71.6882542,43.7595034]}},{"properties":{"size":1610,"school_name":"Pomona College","campus_name":"Main Campus","total_offenses":9},"type":"Feature","geometry":{"type":"Point","coordinates":[-117.7119921,34.0987395]}},{"properties":{"size":39794,"school_name":"Purdue University-Main Campus","campus_name":"Main Campus","total_offenses":13},"type":"Feature","geometry":{"type":"Point","coordinates":[-86.92119459999999,40.4237054]}},{"properties":{"size":2420,"school_name":"Rhode Island School of Design","campus_name":"Main Campus","total_offenses":7},"type":"Feature","geometry":{"type":"Point","coordinates":[-71.4074596,41.8259947]}},{"properties":{"size":48036,"school_name":"Rutgers University-New Brunswick","campus_name":"Main Campus","total_offenses":26},"type":"Feature","geometry":{"type":"Point","coordinates":[-74.44739910000001,40.5008186]}},{"properties":{"size":16765,"school_name":"Saint Cloud State University","campus_name":"Main Campus","total_offenses":2},"type":"Feature","geometry":{"type":"Point","coordinates":[-94.15109299999999,45.552525]}},{"properties":{"size":31899,"school_name":"San Diego State University","campus_name":"Main Campus","total_offenses":8},"type":"Feature","geometry":{"type":"Point","coordinates":[-117.0718893,32.77572170000001]}},{"properties":{"size":31278,"school_name":"San Jose State University","campus_name":"Main Campus","total_offenses":2},"type":"Feature","geometry":{"type":"Point","coordinates":[-121.88130228815,37.3352583]}},{"properties":{"size":10313,"school_name":"Scottsdale Community College","campus_name":"Main Campus","total_offenses":1},"type":"Feature","geometry":{"type":"Point","coordinates":[-111.8824857,33.5126183]}},{"properties":{"size":1009,"school_name":"Scripps College","campus_name":"Main Campus","total_offenses":3},"type":"Feature","geometry":{"type":"Point","coordinates":[-117.710379,34.10421179999999]}},{"properties":{"size":8479,"school_name":"Shasta College","campus_name":"Main Campus","total_offenses":5},"type":"Feature","geometry":{"type":"Point","coordinates":[-122.3142672,40.6266076]}},{"properties":{"size":8479,"school_name":"Shasta College","campus_name":"Shasta College - Tehama Campus","total_offenses":1},"type":"Feature","geometry":{"type":"Point","coordinates":[-122.2181881,40.1574026]}},{"properties":{"size":7548,"school_name":"Shippensburg University of Pennsylvania","campus_name":"Main Campus","total_offenses":9},"type":"Feature","geometry":{"type":"Point","coordinates":[-77.5234365,40.0603939]}},{"properties":{"size":3033,"school_name":"Smith College","campus_name":"Main Campus","total_offenses":7},"type":"Feature","geometry":{"type":"Point","coordinates":[-72.6372697,42.3180301]}},{"properties":{"size":2640,"school_name":"South Dakota School of Mines and Technology","campus_name":"Main Campus","total_offenses":1},"type":"Feature","geometry":{"type":"Point","coordinates":[-103.2054556,44.072561]}},{"properties":{"size":3826,"school_name":"Southeastern Oklahoma State University","campus_name":"Main Campus","total_offenses":3},"type":"Feature","geometry":{"type":"Point","coordinates":[-96.3763534,34.0048309]}},{"properties":{"size":17964,"school_name":"Southern Illinois University-Carbondale","campus_name":"Southern Illinois University Carbondale","total_offenses":7},"type":"Feature","geometry":{"type":"Point","coordinates":[-89.2199937069488,37.71581435]}},{"properties":{"size":3962,"school_name":"Spring Arbor University","campus_name":"Main Campus","total_offenses":1},"type":"Feature","geometry":{"type":"Point","coordinates":[-84.5549522,42.2064519]}},{"properties":{"size":3868,"school_name":"St Mary's University","campus_name":"Main Campus","total_offenses":4},"type":"Feature","geometry":{"type":"Point","coordinates":[-98.5639582,29.4529548]}},{"properties":{"size":5784,"school_name":"Stevens Institute of Technology","campus_name":"Main Campus","total_offenses":1},"type":"Feature","geometry":{"type":"Point","coordinates":[-74.0258467,40.7468668]}},{"properties":{"size":7110,"school_name":"SUNY College at Cortland","campus_name":"Main Campus","total_offenses":6},"type":"Feature","geometry":{"type":"Point","coordinates":[-76.1973745,42.5918072]}},{"properties":{"size":5644,"school_name":"SUNY College at Geneseo","campus_name":"SUNY at Geneseo","total_offenses":8},"type":"Feature","geometry":{"type":"Point","coordinates":[-77.82386269999999,42.79600689999999]}},{"properties":{"size":6051,"school_name":"SUNY College at Plattsburgh","campus_name":"Main Campus","total_offenses":4},"type":"Feature","geometry":{"type":"Point","coordinates":[-73.46669279999999,44.6930943]}},{"properties":{"size":3555,"school_name":"SUNY College of Technology at Alfred","campus_name":"Alfred State College - Alfred Campus","total_offenses":5},"type":"Feature","geometry":{"type":"Point","coordinates":[-77.7946533,42.2552377]}},{"properties":{"size":3512,"school_name":"SUNY College of Technology at Canton","campus_name":"Main Campus","total_offenses":3},"type":"Feature","geometry":{"type":"Point","coordinates":[-75.183458,44.602382]}},{"properties":{"size":21267,"school_name":"Syracuse University","campus_name":"Main Campus","total_offenses":9},"type":"Feature","geometry":{"type":"Point","coordinates":[-76.1400680119713,43.04295775]}},{"properties":{"size":11118,"school_name":"Tennessee Technological University","campus_name":"Tennessee Technological University","total_offenses":3},"type":"Feature","geometry":{"type":"Point","coordinates":[-85.5041908102416,36.1757694]}},{"properties":{"size":11591,"school_name":"Texas A & M University-Commerce","campus_name":"Main Campus","total_offenses":4},"type":"Feature","geometry":{"type":"Point","coordinates":[-95.907319,33.242525]}},{"properties":{"size":35546,"school_name":"Texas State University","campus_name":"Main Campus","total_offenses":6},"type":"Feature","geometry":{"type":"Point","coordinates":[-97.9401803,29.88925750000001]}},{"properties":{"size":1427,"school_name":"The Art Institute of Charlotte","campus_name":"The Art Institute of Charlotte","total_offenses":5},"type":"Feature","geometry":{"type":"Point","coordinates":[-80.92747109999999,35.181876]}},{"properties":{"size":991,"school_name":"The Art Institute of Tennessee-Nashville","campus_name":"The Art Institute of Tennessee-Nashville","total_offenses":2},"type":"Feature","geometry":{"type":"Point","coordinates":[-86.6351384,36.1544579]}},{"properties":{"size":2322,"school_name":"The Illinois Institute of Art-Chicago","campus_name":"The Illinois Institute of Art - Chicago","total_offenses":2},"type":"Feature","geometry":{"type":"Point","coordinates":[-87.637246626104,41.8884536]}},{"properties":{"size":34752,"school_name":"The University of Alabama","campus_name":"Main Campus","total_offenses":10},"type":"Feature","geometry":{"type":"Point","coordinates":[-87.5391418,33.2140233]}},{"properties":{"size":52059,"school_name":"The University of Texas at Austin","campus_name":"The University of Texas at Austin","total_offenses":21},"type":"Feature","geometry":{"type":"Point","coordinates":[-97.7340567,30.2849185]}},{"properties":{"size":12285,"school_name":"The University of Texas at Brownsville","campus_name":"UTB/TSC Main Campus","total_offenses":2},"type":"Feature","geometry":{"type":"Point","coordinates":[-97.48666399999999,25.893722]}},{"properties":{"size":28623,"school_name":"The University of Texas at San Antonio","campus_name":"Main Campus","total_offenses":7},"type":"Feature","geometry":{"type":"Point","coordinates":[-98.50209615,29.42369985]}},{"properties":{"size":1082,"school_name":"Transylvania University","campus_name":"Transylvania University","total_offenses":6},"type":"Feature","geometry":{"type":"Point","coordinates":[-84.4939870577841,38.053107]}},{"properties":{"size":2390,"school_name":"Trinity College","campus_name":"Main Campus Trinity College","total_offenses":25},"type":"Feature","geometry":{"type":"Point","coordinates":[-72.690375,41.74707799999999]}},{"properties":{"size":6225,"school_name":"Truman State University","campus_name":"Main Campus","total_offenses":3},"type":"Feature","geometry":{"type":"Point","coordinates":[-92.5819458,40.1876254]}},{"properties":{"size":10872,"school_name":"Tufts University","campus_name":"Medford/Somerville Campus","total_offenses":13},"type":"Feature","geometry":{"type":"Point","coordinates":[-71.1190232,42.4074843]}},{"properties":{"size":40621,"school_name":"University of Arizona","campus_name":"Main Campus","total_offenses":28},"type":"Feature","geometry":{"type":"Point","coordinates":[-110.9501094,32.2318851]}},{"properties":{"size":25341,"school_name":"University of Arkansas","campus_name":"Main Campus","total_offenses":6},"type":"Feature","geometry":{"type":"Point","coordinates":[-94.17365509999999,36.0678324]}},{"properties":{"size":36198,"school_name":"University of California-Berkeley","campus_name":"Main Campus","total_offenses":33},"type":"Feature","geometry":{"type":"Point","coordinates":[-122.2585399,37.8718992]}},{"properties":{"size":33307,"school_name":"University of California-Davis","campus_name":"Main Campus","total_offenses":21},"type":"Feature","geometry":{"type":"Point","coordinates":[-121.7617125,38.5382322]}},{"properties":{"size":28895,"school_name":"University of California-Irvine","campus_name":"Main Campus","total_offenses":15},"type":"Feature","geometry":{"type":"Point","coordinates":[-117.8442962,33.6404952]}},{"properties":{"size":40795,"school_name":"University of California-Los Angeles","campus_name":"UCLA","total_offenses":38},"type":"Feature","geometry":{"type":"Point","coordinates":[-118.446731866638,34.07088865]}},{"properties":{"size":3079,"school_name":"University of California-San Francisco","campus_name":"Main Campus - Parnassus","total_offenses":5},"type":"Feature","geometry":{"type":"Point","coordinates":[-122.4574487,37.7629651]}},{"properties":{"size":22225,"school_name":"University of California-Santa Barbara","campus_name":"Main Campus","total_offenses":28},"type":"Feature","geometry":{"type":"Point","coordinates":[-119.848947,34.4139629]}},{"properties":{"size":11534,"school_name":"University of Central Arkansas","campus_name":"Main Campus","total_offenses":5},"type":"Feature","geometry":{"type":"Point","coordinates":[-92.4548562,35.080898]}},{"properties":{"size":59589,"school_name":"University of Central Florida","campus_name":"Main Campus","total_offenses":15},"type":"Feature","geometry":{"type":"Point","coordinates":[-81.2000599,28.6024274]}},{"properties":{"size":15048,"school_name":"University of Chicago","campus_name":"Main Campus","total_offenses":11},"type":"Feature","geometry":{"type":"Point","coordinates":[-87.5987133,41.78860789999999]}},{"properties":{"size":34379,"school_name":"University of Cincinnati-Main Campus","campus_name":"Main Campus","total_offenses":7},"type":"Feature","geometry":{"type":"Point","coordinates":[-84.51495039999999,39.1329219]}},{"properties":{"size":32017,"school_name":"University of Colorado Boulder","campus_name":"Main Campus","total_offenses":14},"type":"Feature","geometry":{"type":"Point","coordinates":[-105.266755220729,40.00741815]}},{"properties":{"size":11321,"school_name":"University of Colorado Colorado Springs","campus_name":"University of Colorado Colorado Springs","total_offenses":4},"type":"Feature","geometry":{"type":"Point","coordinates":[-104.7994959,38.89224369999999]}},{"properties":{"size":22206,"school_name":"University of Colorado Denver","campus_name":"UCDHSC - Anschutz Medical Campus","total_offenses":4},"type":"Feature","geometry":{"type":"Point","coordinates":[-104.8379734,39.7450857]}},{"properties":{"size":25911,"school_name":"University of Connecticut","campus_name":"Main Campus","total_offenses":25},"type":"Feature","geometry":{"type":"Point","coordinates":[-72.2539805,41.8077414]}},{"properties":{"size":49878,"school_name":"University of Florida","campus_name":"University of Florida","total_offenses":17},"type":"Feature","geometry":{"type":"Point","coordinates":[-82.3490166909472,29.6328784]}},{"properties":{"size":39540,"school_name":"University of Houston","campus_name":"Central Campus","total_offenses":11},"type":"Feature","geometry":{"type":"Point","coordinates":[-95.3422334,29.7199489]}},{"properties":{"size":44942,"school_name":"University of Illinois at Urbana-Champaign","campus_name":"Main Campus","total_offenses":20},"type":"Feature","geometry":{"type":"Point","coordinates":[-88.2271615,40.10195230000001]}},{"properties":{"size":29748,"school_name":"University of Iowa","campus_name":"Main Campus","total_offenses":13},"type":"Feature","geometry":{"type":"Point","coordinates":[-91.5548998,41.6626963]}},{"properties":{"size":26968,"school_name":"University of Kansas","campus_name":"Main Campus (Lawrence)","total_offenses":15},"type":"Feature","geometry":{"type":"Point","coordinates":[-95.2557961,38.95434389999999]}},{"properties":{"size":11247,"school_name":"University of Maine","campus_name":"University of Maine","total_offenses":24},"type":"Feature","geometry":{"type":"Point","coordinates":[-68.6696269,44.90134570000001]}},{"properties":{"size":21480,"school_name":"University of Memphis","campus_name":"Main Campus","total_offenses":3},"type":"Feature","geometry":{"type":"Point","coordinates":[-89.9362702,35.1208227]}},{"properties":{"size":43710,"school_name":"University of Michigan-Ann Arbor","campus_name":"Ann Arbor campus","total_offenses":30},"type":"Feature","geometry":{"type":"Point","coordinates":[-83.7382241,42.2780436]}},{"properties":{"size":51526,"school_name":"University of Minnesota-Twin Cities","campus_name":"Main Campus","total_offenses":16},"type":"Feature","geometry":{"type":"Point","coordinates":[-93.2277285,44.97399]}},{"properties":{"size":34616,"school_name":"University of Missouri-Columbia","campus_name":"Main Campus","total_offenses":11},"type":"Feature","geometry":{"type":"Point","coordinates":[-92.32773750000001,38.94038079999999]}},{"properties":{"size":27848,"school_name":"University of Nevada-Las Vegas","campus_name":"University of Nevada-Las Vegas","total_offenses":5},"type":"Feature","geometry":{"type":"Point","coordinates":[-115.141831761085,36.1071554]}},{"properties":{"size":14913,"school_name":"University of New Hampshire-Main Campus","campus_name":"Main Campus","total_offenses":23},"type":"Feature","geometry":{"type":"Point","coordinates":[-70.9370252,43.138948]}},{"properties":{"size":29127,"school_name":"University of North Carolina at Chapel Hill","campus_name":"The University of North Carolina at Chapel Hill","total_offenses":19},"type":"Feature","geometry":{"type":"Point","coordinates":[-78.9662056,35.9548107]}},{"properties":{"size":15143,"school_name":"University of North Dakota","campus_name":"Main Campus","total_offenses":11},"type":"Feature","geometry":{"type":"Point","coordinates":[-97.0768014,47.922891]}},{"properties":{"size":12710,"school_name":"University of Northern Colorado","campus_name":"Main Campus","total_offenses":6},"type":"Feature","geometry":{"type":"Point","coordinates":[-104.6981412,40.4040755]}},{"properties":{"size":27292,"school_name":"University of Oklahoma-Norman Campus","campus_name":"Norman Campus","total_offenses":22},"type":"Feature","geometry":{"type":"Point","coordinates":[-97.4457137,35.2058936]}},{"properties":{"size":24473,"school_name":"University of Oregon","campus_name":"Main Campus","total_offenses":14},"type":"Feature","geometry":{"type":"Point","coordinates":[-123.0726055,44.0448302]}},{"properties":{"size":24630,"school_name":"University of Pennsylvania","campus_name":"Main Campus","total_offenses":21},"type":"Feature","geometry":{"type":"Point","coordinates":[-75.1932137,39.9522188]}},{"properties":{"size":4036,"school_name":"University of Portland","campus_name":"Main Campus","total_offenses":4},"type":"Feature","geometry":{"type":"Point","coordinates":[-122.7242126,45.574262]}},{"properties":{"size":5011,"school_name":"University of the District of Columbia","campus_name":"Van Ness Campus (Main/Flagship)","total_offenses":3},"type":"Feature","geometry":{"type":"Point","coordinates":[-77.0653719,38.9439631]}},{"properties":{"size":336,"school_name":"University of the District of Columbia-David A Clarke School of Law","campus_name":"Flagship/Main Campus","total_offenses":3},"type":"Feature","geometry":{"type":"Point","coordinates":[-77.06522199999999,38.946214]}},{"properties":{"size":4597,"school_name":"University of Tulsa","campus_name":"Main Campus","total_offenses":5},"type":"Feature","geometry":{"type":"Point","coordinates":[-95.9445808,36.1511173]}},{"properties":{"size":32077,"school_name":"University of Utah","campus_name":"Main Campus","total_offenses":16},"type":"Feature","geometry":{"type":"Point","coordinates":[-111.8421021,40.7649368]}},{"properties":{"size":12723,"school_name":"University of Vermont","campus_name":"Main Campus","total_offenses":15},"type":"Feature","geometry":{"type":"Point","coordinates":[-73.1997517799958,44.4811568]}},{"properties":{"size":23464,"school_name":"University of Virginia-Main Campus","campus_name":"Main Campus","total_offenses":49},"type":"Feature","geometry":{"type":"Point","coordinates":[-78.5079772,38.0335529]}},{"properties":{"size":43762,"school_name":"University of Washington-Seattle Campus","campus_name":"Main Campus","total_offenses":9},"type":"Feature","geometry":{"type":"Point","coordinates":[-122.3035199,47.65533509999999]}},{"properties":{"size":42677,"school_name":"University of Wisconsin-Madison","campus_name":"Main Campus","total_offenses":33},"type":"Feature","geometry":{"type":"Point","coordinates":[-89.4124875,43.07659200000001]}},{"properties":{"size":27416,"school_name":"University of Wisconsin-Milwaukee","campus_name":"Main Campus","total_offenses":9},"type":"Feature","geometry":{"type":"Point","coordinates":[-87.8819686,43.07826299999999]}},{"properties":{"size":13900,"school_name":"University of Wisconsin-Oshkosh","campus_name":"University of Wisconsin Oshkosh","total_offenses":10},"type":"Feature","geometry":{"type":"Point","coordinates":[-88.5510269401539,44.0250195]}},{"properties":{"size":12027,"school_name":"University of Wisconsin-Whitewater","campus_name":"Main Campus","total_offenses":16},"type":"Feature","geometry":{"type":"Point","coordinates":[-88.7432242,42.8383546]}},{"properties":{"size":1617,"school_name":"Upstate Medical University","campus_name":"SUNY Upstate Medical University","total_offenses":6},"type":"Feature","geometry":{"type":"Point","coordinates":[-76.1396943,43.0425431]}},{"properties":{"size":12757,"school_name":"Vanderbilt University","campus_name":"Main Campus","total_offenses":18},"type":"Feature","geometry":{"type":"Point","coordinates":[-86.8026551,36.1447034]}},{"properties":{"size":18383,"school_name":"Vincennes University","campus_name":"Main Campus","total_offenses":4},"type":"Feature","geometry":{"type":"Point","coordinates":[-87.5210378,38.6883842]}},{"properties":{"size":1714,"school_name":"Wartburg College","campus_name":"Main Campus","total_offenses":5},"type":"Feature","geometry":{"type":"Point","coordinates":[-92.4821589,42.72857749999999]}},{"properties":{"size":1328,"school_name":"Washington & Jefferson College","campus_name":"Main Campus","total_offenses":4},"type":"Feature","geometry":{"type":"Point","coordinates":[-80.241193,40.171125]}},{"properties":{"size":14032,"school_name":"Washington University in St Louis","campus_name":"Danforth Campus","total_offenses":25},"type":"Feature","geometry":{"type":"Point","coordinates":[-90.31079620000001,38.6487895]}},{"properties":{"size":3205,"school_name":"Wesleyan University","campus_name":"Main Campus","total_offenses":17},"type":"Feature","geometry":{"type":"Point","coordinates":[-72.65690409999999,41.5566104]}},{"properties":{"size":29466,"school_name":"West Virginia University","campus_name":"Main Campus","total_offenses":11},"type":"Feature","geometry":{"type":"Point","coordinates":[-79.954972,39.6358385]}},{"properties":{"size":1541,"school_name":"Whitman College","campus_name":"Whitman College","total_offenses":7},"type":"Feature","geometry":{"type":"Point","coordinates":[-118.3288534,46.0706922]}},{"properties":{"size":5399,"school_name":"Winston-Salem State University","campus_name":"Winston Salem State University","total_offenses":3},"type":"Feature","geometry":{"type":"Point","coordinates":[-80.2265976,36.0914159]}},{"properties":{"size":16656,"school_name":"Wright State University-Main Campus","campus_name":"Dayton (Main) Campus","total_offenses":12},"type":"Feature","geometry":{"type":"Point","coordinates":[-84.0635798,39.7814843]}},{"properties":{"size":16001,"school_name":"Academy of Art University","campus_name":"Main Campus","total_offenses":4},"type":"Feature","geometry":{"type":"Point","coordinates":[-122.4006709,37.7878301]}},{"properties":{"size":3211,"school_name":"Adams State University","campus_name":"Adams State University","total_offenses":4},"type":"Feature","geometry":{"type":"Point","coordinates":[-105.881899607859,37.4738579]}},{"properties":{"size":7645,"school_name":"Adelphi University","campus_name":"Main Campus","total_offenses":2},"type":"Feature","geometry":{"type":"Point","coordinates":[-73.650627,40.722071]}},{"properties":{"size":1658,"school_name":"Adrian College","campus_name":"Main Campus","total_offenses":2},"type":"Feature","geometry":{"type":"Point","coordinates":[-84.05917389999999,41.8985832]}},{"properties":{"size":5020,"school_name":"Alabama A & M University","campus_name":"Main Campus","total_offenses":2},"type":"Feature","geometry":{"type":"Point","coordinates":[-86.5734994,34.78426939999999]}},{"properties":{"size":53,"school_name":"Alaska Christian College","campus_name":"Alaska Christian College","total_offenses":1},"type":"Feature","geometry":{"type":"Point","coordinates":[-151.1359495,60.49043]}},{"properties":{"size":4260,"school_name":"Albany State University","campus_name":"Albany State University","total_offenses":1},"type":"Feature","geometry":{"type":"Point","coordinates":[-84.140095,31.5701889]}},{"properties":{"size":3894,"school_name":"Albany Technical College","campus_name":"Albany Technical College","total_offenses":2},"type":"Feature","geometry":{"type":"Point","coordinates":[-84.1749299184512,31.55419115]}},{"properties":{"size":1307,"school_name":"Albion College","campus_name":"Main Campus","total_offenses":3},"type":"Feature","geometry":{"type":"Point","coordinates":[-84.7451882,42.2439985]}},{"properties":{"size":2384,"school_name":"Albright College","campus_name":"ALBRIGHT COLLEGE","total_offenses":2},"type":"Feature","geometry":{"type":"Point","coordinates":[-75.9096508,40.3609263]}},{"properties":{"size":2845,"school_name":"Alexandria Technical & Community College","campus_name":"Alexandria Technical and Community College","total_offenses":1},"type":"Feature","geometry":{"type":"Point","coordinates":[-95.371971,45.86921400000001]}},{"properties":{"size":2161,"school_name":"Allegheny College","campus_name":"Main Campus","total_offenses":12},"type":"Feature","geometry":{"type":"Point","coordinates":[-80.039534612632,40.5658282]}},{"properties":{"size":1419,"school_name":"Alma College","campus_name":"Main Campus","total_offenses":3},"type":"Feature","geometry":{"type":"Point","coordinates":[-84.6699398,43.37901099999999]}},{"properties":{"size":2871,"school_name":"Alvernia University","campus_name":"Main Campus","total_offenses":1},"type":"Feature","geometry":{"type":"Point","coordinates":[-75.9354668,40.30909579999999]}},{"properties":{"size":3657,"school_name":"American International College","campus_name":"American International College","total_offenses":2},"type":"Feature","geometry":{"type":"Point","coordinates":[-72.5578655,42.1125941]}},{"properties":{"size":12818,"school_name":"American University","campus_name":"Main Campus","total_offenses":8},"type":"Feature","geometry":{"type":"Point","coordinates":[-77.0809257674905,38.9456237]}},{"properties":{"size":1785,"school_name":"Amherst College","campus_name":"Main Campus","total_offenses":9},"type":"Feature","geometry":{"type":"Point","coordinates":[-72.5170028,42.3709104]}},{"properties":{"size":6536,"school_name":"Angelo State University","campus_name":"Main Campus","total_offenses":3},"type":"Feature","geometry":{"type":"Point","coordinates":[-100.4665211,31.4423256]}},{"properties":{"size":2001,"school_name":"Aquinas College","campus_name":"Main Campus","total_offenses":2},"type":"Feature","geometry":{"type":"Point","coordinates":[-85.62875559999999,42.9601469]}},{"properties":{"size":48702,"school_name":"Arizona State University-Tempe","campus_name":"Polytechnic Campus","total_offenses":1},"type":"Feature","geometry":{"type":"Point","coordinates":[-111.679773,33.307168]}},{"properties":{"size":13552,"school_name":"Arkansas State University-Main Campus","campus_name":"Arkansas State University-Jonesboro","total_offenses":3},"type":"Feature","geometry":{"type":"Point","coordinates":[-90.6770298,35.84281519999999]}},{"properties":{"size":11369,"school_name":"Arkansas Tech University","campus_name":"Main Campus","total_offenses":2},"type":"Feature","geometry":{"type":"Point","coordinates":[-93.13865709999999,35.2950751]}},{"properties":{"size":5979,"school_name":"Ashland University","campus_name":"Ashland University","total_offenses":3},"type":"Feature","geometry":{"type":"Point","coordinates":[-122.696901969014,42.1867143]}},{"properties":{"size":5084,"school_name":"Auburn University at Montgomery","campus_name":"Auburn University Montgomery","total_offenses":1},"type":"Feature","geometry":{"type":"Point","coordinates":[-86.1771872,32.3709721]}},{"properties":{"size":3554,"school_name":"Augsburg College","campus_name":"Main Campus","total_offenses":10},"type":"Feature","geometry":{"type":"Point","coordinates":[-93.241518,44.9663695]}},{"properties":{"size":2524,"school_name":"Augustana College","campus_name":"Main Campus","total_offenses":6},"type":"Feature","geometry":{"type":"Point","coordinates":[-90.55070979999999,41.5051053]}},{"properties":{"size":306,"school_name":"Aultman College of Nursing and Health Sciences","campus_name":"Aultman College of Nursing and Health Sciences","total_offenses":1},"type":"Feature","geometry":{"type":"Point","coordinates":[-81.40355400000001,40.795967]}},{"properties":{"size":4946,"school_name":"Aurora University","campus_name":"Main Campus","total_offenses":1},"type":"Feature","geometry":{"type":"Point","coordinates":[-88.350044,41.754433]}},{"properties":{"size":1223,"school_name":"Austin College","campus_name":"Main Campus","total_offenses":2},"type":"Feature","geometry":{"type":"Point","coordinates":[-97.870076,30.026392]}},{"properties":{"size":10399,"school_name":"Austin Peay State University","campus_name":"Main Campus","total_offenses":2},"type":"Feature","geometry":{"type":"Point","coordinates":[-87.3540972,36.5379773]}},{"properties":{"size":10755,"school_name":"Azusa Pacific University","campus_name":"Azusa (main campus)","total_offenses":11},"type":"Feature","geometry":{"type":"Point","coordinates":[-117.8883593,34.1300755]}},{"properties":{"size":3343,"school_name":"Babson College","campus_name":"Main Campus","total_offenses":6},"type":"Feature","geometry":{"type":"Point","coordinates":[-71.2659951,42.2993708]}},{"properties":{"size":4977,"school_name":"Baker College of Flint","campus_name":"BAKER COLLEGE OF FLINT","total_offenses":1},"type":"Feature","geometry":{"type":"Point","coordinates":[-83.6961214,42.9754572]}},{"properties":{"size":4053,"school_name":"Baldwin Wallace University","campus_name":"Main Campus","total_offenses":1},"type":"Feature","geometry":{"type":"Point","coordinates":[-81.84839099999999,41.3735087]}},{"properties":{"size":2355,"school_name":"Bard College","campus_name":"Main Campus","total_offenses":8},"type":"Feature","geometry":{"type":"Point","coordinates":[-73.91005439999999,42.0203897]}},{"properties":{"size":350,"school_name":"Bard College at Simon's Rock","campus_name":"Main Campus","total_offenses":1},"type":"Feature","geometry":{"type":"Point","coordinates":[-73.378238,42.20797599999999]}},{"properties":{"size":2489,"school_name":"Barnard College","campus_name":"Main Campus","total_offenses":2},"type":"Feature","geometry":{"type":"Point","coordinates":[-73.9639632,40.8090974]}},{"properties":{"size":1065,"school_name":"Barton College","campus_name":"Main Campus","total_offenses":2},"type":"Feature","geometry":{"type":"Point","coordinates":[-77.9162702,35.7351078]}},{"properties":{"size":1791,"school_name":"Bates College","campus_name":"Main Campus","total_offenses":8},"type":"Feature","geometry":{"type":"Point","coordinates":[-122.466319486908,47.1882071]}},{"properties":{"size":15616,"school_name":"Baylor University","campus_name":"Main Campus","total_offenses":6},"type":"Feature","geometry":{"type":"Point","coordinates":[-97.1143146,31.549841]}},{"properties":{"size":3419,"school_name":"Bellarmine University","campus_name":"Main Campus","total_offenses":4},"type":"Feature","geometry":{"type":"Point","coordinates":[-85.70486,38.219141]}},{"properties":{"size":1306,"school_name":"Beloit College","campus_name":"Beloit College","total_offenses":6},"type":"Feature","geometry":{"type":"Point","coordinates":[-89.0158342476219,42.5009292]}},{"properties":{"size":4963,"school_name":"Bemidji State University","campus_name":"Bemidji State University","total_offenses":5},"type":"Feature","geometry":{"type":"Point","coordinates":[-94.8740787600765,47.48502365]}},{"properties":{"size":6318,"school_name":"Benedictine University","campus_name":"Main Campus","total_offenses":3},"type":"Feature","geometry":{"type":"Point","coordinates":[-88.095004,41.7786157]}},{"properties":{"size":738,"school_name":"Bennington College","campus_name":"Main Campus","total_offenses":3},"type":"Feature","geometry":{"type":"Point","coordinates":[-73.241558,42.92389]}},{"properties":{"size":5658,"school_name":"Bentley University","campus_name":"Bentley University","total_offenses":2},"type":"Feature","geometry":{"type":"Point","coordinates":[-71.2220679568894,42.3858974]}},{"properties":{"size":1623,"school_name":"Berea College","campus_name":"Main Campus","total_offenses":2},"type":"Feature","geometry":{"type":"Point","coordinates":[-84.2898841,37.5722323]}},{"properties":{"size":4519,"school_name":"Berklee College of Music","campus_name":"Main Campus - Boston","total_offenses":4},"type":"Feature","geometry":{"type":"Point","coordinates":[-71.0895292,42.3465952]}},{"properties":{"size":4340,"school_name":"Bethel University","campus_name":"Bethel University - Main Campus","total_offenses":1},"type":"Feature","geometry":{"type":"Point","coordinates":[-93.16052169999999,45.05786940000001]}},{"properties":{"size":1188,"school_name":"Birmingham Southern College","campus_name":"Birmingham-Southern College","total_offenses":3},"type":"Feature","geometry":{"type":"Point","coordinates":[-86.8508242,33.513439]}},{"properties":{"size":543,"school_name":"Blackburn College","campus_name":"Blackburn College","total_offenses":3},"type":"Feature","geometry":{"type":"Point","coordinates":[-89.8706546,39.2886591]}},{"properties":{"size":1979,"school_name":"Bloomfield College","campus_name":"Main Campus","total_offenses":1},"type":"Feature","geometry":{"type":"Point","coordinates":[-74.1955321,40.7948947]}},{"properties":{"size":1146,"school_name":"Bluffton University","campus_name":"Main Campus","total_offenses":1},"type":"Feature","geometry":{"type":"Point","coordinates":[-83.897922,40.8968149]}},{"properties":{"size":21981,"school_name":"Boise State University","campus_name":"Main Campus","total_offenses":7},"type":"Feature","geometry":{"type":"Point","coordinates":[-116.1996274,43.6025572]}},{"properties":{"size":21981,"school_name":"Boise State University","campus_name":"Boise State University - College of Southern Idaho Extension","total_offenses":1},"type":"Feature","geometry":{"type":"Point","coordinates":[-114.4743924,42.5816415]}},{"properties":{"size":14309,"school_name":"Boston College","campus_name":"Main Campus","total_offenses":11},"type":"Feature","geometry":{"type":"Point","coordinates":[-71.1619761802168,42.34315285]}},{"properties":{"size":1795,"school_name":"Bowdoin College","campus_name":"Main Campus","total_offenses":6},"type":"Feature","geometry":{"type":"Point","coordinates":[-69.9629558,43.9067561]}},{"properties":{"size":5561,"school_name":"Bowie State University","campus_name":"Main Campus","total_offenses":2},"type":"Feature","geometry":{"type":"Point","coordinates":[-76.7568137,39.0195734]}},{"properties":{"size":16958,"school_name":"Bowling Green State University-Main Campus","campus_name":"Main Campus","total_offenses":15},"type":"Feature","geometry":{"type":"Point","coordinates":[-83.6300826,41.3797788]}},{"properties":{"size":5430,"school_name":"Bradley University","campus_name":"Main Campus","total_offenses":2},"type":"Feature","geometry":{"type":"Point","coordinates":[-89.61601809999999,40.6981432]}},{"properties":{"size":5825,"school_name":"Brandeis University","campus_name":"Main Campus","total_offenses":12},"type":"Feature","geometry":{"type":"Point","coordinates":[-71.25854799999999,42.3662392]}},{"properties":{"size":1848,"school_name":"Bridgewater College","campus_name":"Main Campus","total_offenses":5},"type":"Feature","geometry":{"type":"Point","coordinates":[-78.9670039,38.37892349999999]}},{"properties":{"size":11267,"school_name":"Bridgewater State University","campus_name":"Main Campus","total_offenses":3},"type":"Feature","geometry":{"type":"Point","coordinates":[-70.9651026,41.9872027]}},{"properties":{"size":31123,"school_name":"Brigham Young University-Provo","campus_name":"Brigham Young University (230038)","total_offenses":3},"type":"Feature","geometry":{"type":"Point","coordinates":[-111.6493156,40.2518435]}},{"properties":{"size":215,"school_name":"Brite Divinity School","campus_name":"Brite Divinity School","total_offenses":11},"type":"Feature","geometry":{"type":"Point","coordinates":[-97.3596812,32.7101343]}},{"properties":{"size":12319,"school_name":"Brookhaven College","campus_name":"BROOKHAVEN COLLEGE","total_offenses":2},"type":"Feature","geometry":{"type":"Point","coordinates":[-123.0803336,44.0734323]}},{"properties":{"size":8943,"school_name":"Brown University","campus_name":"Main Campus","total_offenses":21},"type":"Feature","geometry":{"type":"Point","coordinates":[-71.4025482,41.82677179999999]}},{"properties":{"size":3454,"school_name":"Bryant University","campus_name":"Main Campus","total_offenses":6},"type":"Feature","geometry":{"type":"Point","coordinates":[-71.5382698,41.9210684]}},{"properties":{"size":1738,"school_name":"Bryn Mawr College","campus_name":"Main Campus","total_offenses":4},"type":"Feature","geometry":{"type":"Point","coordinates":[-75.31439019999999,40.0266576]}},{"properties":{"size":2399,"school_name":"Buena Vista University","campus_name":"Main Campus and GPS sites","total_offenses":2},"type":"Feature","geometry":{"type":"Point","coordinates":[-95.21007,42.64072219999999]}},{"properties":{"size":14023,"school_name":"Bunker Hill Community College","campus_name":"Main Campus","total_offenses":1},"type":"Feature","geometry":{"type":"Point","coordinates":[-71.0696111,42.37470709999999]}},{"properties":{"size":2448,"school_name":"Cabrini College","campus_name":"Main Campus","total_offenses":2},"type":"Feature","geometry":{"type":"Point","coordinates":[-75.37489049999999,40.05456400000001]}},{"properties":{"size":1949,"school_name":"California College of the Arts","campus_name":"Oakland Campus","total_offenses":1},"type":"Feature","geometry":{"type":"Point","coordinates":[-122.2503541,37.8362513]}},{"properties":{"size":2181,"school_name":"California Institute of Technology","campus_name":"Main Campus","total_offenses":4},"type":"Feature","geometry":{"type":"Point","coordinates":[-118.125269,34.1376576]}},{"properties":{"size":1489,"school_name":"California Institute of the Arts","campus_name":"Main Campus","total_offenses":1},"type":"Feature","geometry":{"type":"Point","coordinates":[-118.5669349,34.3934367]}},{"properties":{"size":19703,"school_name":"California Polytechnic State University-San Luis Obispo","campus_name":"Main Campus","total_offenses":6},"type":"Feature","geometry":{"type":"Point","coordinates":[-120.6624942,35.3050053]}},{"properties":{"size":22501,"school_name":"California State Polytechnic University-Pomona","campus_name":"Main Campus","total_offenses":3},"type":"Feature","geometry":{"type":"Point","coordinates":[-117.8215295,34.0565284]}},{"properties":{"size":5140,"school_name":"California State University-Channel Islands","campus_name":"California State University Channel Islands","total_offenses":2},"type":"Feature","geometry":{"type":"Point","coordinates":[-119.043843,34.1619899]}},{"properties":{"size":14526,"school_name":"California State University-East Bay","campus_name":"Main Campus","total_offenses":3},"type":"Feature","geometry":{"type":"Point","coordinates":[-122.0564049,37.65774699999999]}},{"properties":{"size":38325,"school_name":"California State University-Fullerton","campus_name":"Main Campus","total_offenses":4},"type":"Feature","geometry":{"type":"Point","coordinates":[-117.8869261,33.8829226]}},{"properties":{"size":35586,"school_name":"California State University-Long Beach","campus_name":"Main Campus","total_offenses":3},"type":"Feature","geometry":{"type":"Point","coordinates":[-118.1140904,33.7838235]}},{"properties":{"size":23258,"school_name":"California State University-Los Angeles","campus_name":"California State University- Los Angeles","total_offenses":1},"type":"Feature","geometry":{"type":"Point","coordinates":[-118.169655,34.064291]}},{"properties":{"size":5732,"school_name":"California State University-Monterey Bay","campus_name":"California State University- Monterey Bay","total_offenses":4},"type":"Feature","geometry":{"type":"Point","coordinates":[-121.80176,36.65444970000001]}},{"properties":{"size":38310,"school_name":"California State University-Northridge","campus_name":"California State University- Northridge","total_offenses":6},"type":"Feature","geometry":{"type":"Point","coordinates":[-118.5293247,34.2389212]}},{"properties":{"size":28811,"school_name":"California State University-Sacramento","campus_name":"Sacramento State","total_offenses":1},"type":"Feature","geometry":{"type":"Point","coordinates":[-121.4241199,38.5626837]}},{"properties":{"size":18398,"school_name":"California State University-San Bernardino","campus_name":"California State University- San Bernardino","total_offenses":2},"type":"Feature","geometry":{"type":"Point","coordinates":[-117.321886392209,34.1825988]}},{"properties":{"size":11300,"school_name":"California State University-San Marcos","campus_name":"Main Campus","total_offenses":1},"type":"Feature","geometry":{"type":"Point","coordinates":[-117.1596842,33.1298708]}},{"properties":{"size":8917,"school_name":"California State University-Stanislaus","campus_name":"CSU Stanislaus - Turlock","total_offenses":2},"type":"Feature","geometry":{"type":"Point","coordinates":[-120.8568887,37.52457130000001]}},{"properties":{"size":2458,"school_name":"Carl Albert State College","campus_name":"Carl Albert State College","total_offenses":1},"type":"Feature","geometry":{"type":"Point","coordinates":[-94.6340549,35.0393248]}},{"properties":{"size":2045,"school_name":"Carleton College","campus_name":"Carleton College","total_offenses":8},"type":"Feature","geometry":{"type":"Point","coordinates":[-93.1414579590152,44.47183535]}},{"properties":{"size":12367,"school_name":"Carnegie Mellon University","campus_name":"Main Campus","total_offenses":16},"type":"Feature","geometry":{"type":"Point","coordinates":[-79.9434567,40.4434658]}},{"properties":{"size":1431,"school_name":"Carroll College","campus_name":"Main Campus","total_offenses":3},"type":"Feature","geometry":{"type":"Point","coordinates":[-112.0391321,46.6008648]}},{"properties":{"size":2045,"school_name":"Carson-Newman University","campus_name":"Main Campus","total_offenses":2},"type":"Feature","geometry":{"type":"Point","coordinates":[-83.490358,36.122362]}},{"properties":{"size":4082,"school_name":"Casper College","campus_name":"Casper College","total_offenses":2},"type":"Feature","geometry":{"type":"Point","coordinates":[-106.328358762083,42.8282385]}},{"properties":{"size":2175,"school_name":"Castleton State College","campus_name":"Main Campus","total_offenses":3},"type":"Feature","geometry":{"type":"Point","coordinates":[-73.1780814,43.60939359999999]}},{"properties":{"size":1310,"school_name":"Catawba College","campus_name":"Catawba College","total_offenses":2},"type":"Feature","geometry":{"type":"Point","coordinates":[-80.4831148,35.6915283]}},{"properties":{"size":1077,"school_name":"Cazenovia College","campus_name":"Main Campus","total_offenses":2},"type":"Feature","geometry":{"type":"Point","coordinates":[-75.8581705889796,42.9292965]}},{"properties":{"size":2400,"school_name":"Centenary College","campus_name":"Hackettstown","total_offenses":2},"type":"Feature","geometry":{"type":"Point","coordinates":[-74.8332674,40.848445]}},{"properties":{"size":661,"school_name":"Centenary College of Louisiana","campus_name":"Main Campus","total_offenses":1},"type":"Feature","geometry":{"type":"Point","coordinates":[-93.73215560000001,32.4847432]}},{"properties":{"size":6445,"school_name":"Central Arizona College","campus_name":"Main Campus-Signal Peak","total_offenses":1},"type":"Feature","geometry":{"type":"Point","coordinates":[-111.6526577,32.9557438]}},{"properties":{"size":6906,"school_name":"Central Community College","campus_name":"Central  Community College-Columbus","total_offenses":1},"type":"Feature","geometry":{"type":"Point","coordinates":[-97.3804452,41.4763541]}},{"properties":{"size":11865,"school_name":"Central Connecticut State University","campus_name":"Main Campus","total_offenses":5},"type":"Feature","geometry":{"type":"Point","coordinates":[-72.76654959999999,41.6906682]}},{"properties":{"size":3648,"school_name":"Central Ohio Technical College","campus_name":"Central Ohio Technical College","total_offenses":1},"type":"Feature","geometry":{"type":"Point","coordinates":[-82.447965,40.06793]}},{"properties":{"size":11287,"school_name":"Central Washington University","campus_name":"Central Washington University","total_offenses":1},"type":"Feature","geometry":{"type":"Point","coordinates":[-122.3267661,47.817045]}},{"properties":{"size":7892,"school_name":"Chapman University","campus_name":"Main Campus","total_offenses":5},"type":"Feature","geometry":{"type":"Point","coordinates":[-117.8512582,33.7924581]}},{"properties":{"size":2189,"school_name":"Chestnut Hill College","campus_name":"Chestnut Hill College","total_offenses":2},"type":"Feature","geometry":{"type":"Point","coordinates":[-75.2279559,40.0870551]}},{"properties":{"size":1212,"school_name":"Cheyney University of Pennsylvania","campus_name":"Main Campus","total_offenses":3},"type":"Feature","geometry":{"type":"Point","coordinates":[-75.52856609999999,39.93387240000001]}},{"properties":{"size":5701,"school_name":"Chicago State University","campus_name":"Main Campus","total_offenses":1},"type":"Feature","geometry":{"type":"Point","coordinates":[-87.6112325,41.718485]}},{"properties":{"size":5232,"school_name":"Christopher Newport University","campus_name":"Main Campus","total_offenses":10},"type":"Feature","geometry":{"type":"Point","coordinates":[-76.4938087,37.0638735]}},{"properties":{"size":3617,"school_name":"Cisco College","campus_name":"Main Campus","total_offenses":2},"type":"Feature","geometry":{"type":"Point","coordinates":[-98.9852757,32.4008802]}},{"properties":{"size":3598,"school_name":"Citadel Military College of South Carolina","campus_name":"The Citadel","total_offenses":4},"type":"Feature","geometry":{"type":"Point","coordinates":[-79.9606739,32.797075]}},{"properties":{"size":12920,"school_name":"Citrus College","campus_name":"Main Campus","total_offenses":1},"type":"Feature","geometry":{"type":"Point","coordinates":[-82.4888888,29.8083333]}},{"properties":{"size":26706,"school_name":"City College of San Francisco","campus_name":"Ocean Campus","total_offenses":2},"type":"Feature","geometry":{"type":"Point","coordinates":[-122.451380026325,37.72594135]}},{"properties":{"size":6842,"school_name":"City Colleges of Chicago-Malcolm X College","campus_name":"Main Campus","total_offenses":2},"type":"Feature","geometry":{"type":"Point","coordinates":[-87.6745677,41.877342]}},{"properties":{"size":1328,"school_name":"Claremont McKenna College","campus_name":"Main Campus","total_offenses":8},"type":"Feature","geometry":{"type":"Point","coordinates":[-117.7075909,34.10165529999999]}},{"properties":{"size":6080,"school_name":"Clarion University of Pennsylvania","campus_name":"Main Campus","total_offenses":5},"type":"Feature","geometry":{"type":"Point","coordinates":[-79.72988889999999,41.4080527]}},{"properties":{"size":3551,"school_name":"Clark University","campus_name":"Main Campus","total_offenses":5},"type":"Feature","geometry":{"type":"Point","coordinates":[-85.7406178,38.2846016]}},{"properties":{"size":7261,"school_name":"Clayton  State University","campus_name":"Clayton State University","total_offenses":2},"type":"Feature","geometry":{"type":"Point","coordinates":[-84.3288058,33.5946095]}},{"properties":{"size":17497,"school_name":"Cleveland State University","campus_name":"Cleveland State University","total_offenses":3},"type":"Feature","geometry":{"type":"Point","coordinates":[-81.6751669486689,41.50214445]}},{"properties":{"size":2318,"school_name":"Cloud County Community College","campus_name":"Concordia Campus","total_offenses":1},"type":"Feature","geometry":{"type":"Point","coordinates":[-97.6636504,39.5541685]}},{"properties":{"size":3720,"school_name":"Clover Park Technical College","campus_name":"Main Campus","total_offenses":1},"type":"Feature","geometry":{"type":"Point","coordinates":[-122.4978684,47.1761017]}},{"properties":{"size":9478,"school_name":"Coastal Carolina University","campus_name":"Main Campus","total_offenses":6},"type":"Feature","geometry":{"type":"Point","coordinates":[-79.01173,33.7949658]}},{"properties":{"size":1419,"school_name":"Coe College","campus_name":"Main Campus","total_offenses":6},"type":"Feature","geometry":{"type":"Point","coordinates":[-120.4211788,34.9432246]}},{"properties":{"size":1820,"school_name":"Colby College","campus_name":"Main Campus","total_offenses":8},"type":"Feature","geometry":{"type":"Point","coordinates":[-101.0528901,39.3775812]}},{"properties":{"size":1402,"school_name":"Colby Community College","campus_name":"Main Campus","total_offenses":2},"type":"Feature","geometry":{"type":"Point","coordinates":[-101.0514663,39.3777786]}},{"properties":{"size":1409,"school_name":"Colby-Sawyer College","campus_name":"Main Campus","total_offenses":4},"type":"Feature","geometry":{"type":"Point","coordinates":[-71.978033,43.412062]}},{"properties":{"size":2900,"school_name":"Colgate University","campus_name":"Main Campus","total_offenses":7},"type":"Feature","geometry":{"type":"Point","coordinates":[-75.541671,42.822465]}},{"properties":{"size":11619,"school_name":"College of Charleston","campus_name":"Main Campus","total_offenses":3},"type":"Feature","geometry":{"type":"Point","coordinates":[-79.93767179999999,32.78352210000001]}},{"properties":{"size":17685,"school_name":"College of Lake County","campus_name":"Lakeshore Campus","total_offenses":1},"type":"Feature","geometry":{"type":"Point","coordinates":[-87.8309668299231,42.36124445]}},{"properties":{"size":1938,"school_name":"College of Mount Saint Vincent","campus_name":"College of Mount Saint Vincent","total_offenses":3},"type":"Feature","geometry":{"type":"Point","coordinates":[-73.9030113,40.9124186]}},{"properties":{"size":2051,"school_name":"College of Saint Benedict","campus_name":"College of Saint Benedict - Main Campus","total_offenses":2},"type":"Feature","geometry":{"type":"Point","coordinates":[-94.3922235,45.5804492]}},{"properties":{"size":8330,"school_name":"College of Southern Idaho","campus_name":"CSI Main Campus","total_offenses":2},"type":"Feature","geometry":{"type":"Point","coordinates":[-114.4743924,42.5816415]}},{"properties":{"size":9259,"school_name":"College of the Desert","campus_name":"Main Campus","total_offenses":1},"type":"Feature","geometry":{"type":"Point","coordinates":[-116.3875761,33.7324187]}},{"properties":{"size":2912,"school_name":"College of the Holy Cross","campus_name":"Main Campus","total_offenses":5},"type":"Feature","geometry":{"type":"Point","coordinates":[-71.80524640000002,42.2378888]}},{"properties":{"size":8376,"school_name":"College of William and Mary","campus_name":"Main Campus","total_offenses":3},"type":"Feature","geometry":{"type":"Point","coordinates":[-76.70825239999999,37.269455]}},{"properties":{"size":375,"school_name":"Colorado Heights University","campus_name":"Colorado Heights University","total_offenses":1},"type":"Feature","geometry":{"type":"Point","coordinates":[-105.0276732,39.6615197]}},{"properties":{"size":9676,"school_name":"Colorado Mesa University","campus_name":"Colorado Mesa University - Main Campus","total_offenses":3},"type":"Feature","geometry":{"type":"Point","coordinates":[-108.553526,39.0787545]}},{"properties":{"size":1138,"school_name":"Colorado Northwestern Community College","campus_name":"CNCC Rangely Campus","total_offenses":1},"type":"Feature","geometry":{"type":"Point","coordinates":[-108.7868255,40.0839437]}},{"properties":{"size":7089,"school_name":"Colorado State University-Pueblo","campus_name":"Colorado State University-Pueblo","total_offenses":3},"type":"Feature","geometry":{"type":"Point","coordinates":[-104.5780056,38.308195]}},{"properties":{"size":10142,"school_name":"Columbia College-Chicago","campus_name":"Columbia College Chicago","total_offenses":2},"type":"Feature","geometry":{"type":"Point","coordinates":[-87.6247912,41.8742404]}},{"properties":{"size":26957,"school_name":"Columbia University in the City of New York","campus_name":"Columbia University Medical Center","total_offenses":2},"type":"Feature","geometry":{"type":"Point","coordinates":[-73.94005849999999,40.8414715]}},{"properties":{"size":2558,"school_name":"Concordia College at Moorhead","campus_name":"Concordia College","total_offenses":3},"type":"Feature","geometry":{"type":"Point","coordinates":[-96.7701101,46.86272929999999]}},{"properties":{"size":5286,"school_name":"Concordia University-Chicago","campus_name":"Main Campus","total_offenses":2},"type":"Feature","geometry":{"type":"Point","coordinates":[-87.8094291,41.8995221]}},{"properties":{"size":4046,"school_name":"Concordia University-Irvine","campus_name":"Main Campus","total_offenses":2},"type":"Feature","geometry":{"type":"Point","coordinates":[-117.810409,33.65460999999999]}},{"properties":{"size":1922,"school_name":"Connecticut College","campus_name":"Connecticut College","total_offenses":9},"type":"Feature","geometry":{"type":"Point","coordinates":[-72.1064604723478,41.378826]}},{"properties":{"size":1125,"school_name":"Cornell College","campus_name":"Main Campus","total_offenses":6},"type":"Feature","geometry":{"type":"Point","coordinates":[-91.4254455,41.9253402]}},{"properties":{"size":4929,"school_name":"Corning Community College","campus_name":"Corning Community College","total_offenses":3},"type":"Feature","geometry":{"type":"Point","coordinates":[-77.0741458157221,42.1168269]}},{"properties":{"size":13949,"school_name":"Cosumnes River College","campus_name":"Cosumnes River College","total_offenses":2},"type":"Feature","geometry":{"type":"Point","coordinates":[-121.4225574,38.4539336]}},{"properties":{"size":310,"school_name":"Covenant School of Nursing and Allied Health","campus_name":"Main Campus","total_offenses":7},"type":"Feature","geometry":{"type":"Point","coordinates":[-101.9378372,33.5757278]}},{"properties":{"size":2814,"school_name":"Culinary Institute of America","campus_name":"The Culinary Institute of America - Main Campus","total_offenses":3},"type":"Feature","geometry":{"type":"Point","coordinates":[-73.933346,41.74568499999999]}},{"properties":{"size":843,"school_name":"Culver-Stockton College","campus_name":"Main Campus","total_offenses":1},"type":"Feature","geometry":{"type":"Point","coordinates":[-91.53354069999999,40.1290996]}},{"properties":{"size":15331,"school_name":"CUNY City College","campus_name":"The City College of New York","total_offenses":1},"type":"Feature","geometry":{"type":"Point","coordinates":[-73.9492724,40.8200471]}},{"properties":{"size":19564,"school_name":"CUNY LaGuardia Community College","campus_name":"LaGuardia Community College","total_offenses":1},"type":"Feature","geometry":{"type":"Point","coordinates":[-73.9349895,40.7439894]}},{"properties":{"size":16291,"school_name":"CUNY Queensborough Community College","campus_name":"Queensborough Community College- CUNY","total_offenses":2},"type":"Feature","geometry":{"type":"Point","coordinates":[-73.7570884,40.7559583]}},{"properties":{"size":15881,"school_name":"Cypress College","campus_name":"Main Campus","total_offenses":1},"type":"Feature","geometry":{"type":"Point","coordinates":[-118.0247147,33.8278598]}},{"properties":{"size":5015,"school_name":"Dalton State College","campus_name":"Main Campus","total_offenses":1},"type":"Feature","geometry":{"type":"Point","coordinates":[-85.0032471,34.7733488]}},{"properties":{"size":1788,"school_name":"Davidson College","campus_name":"Main Campus","total_offenses":16},"type":"Feature","geometry":{"type":"Point","coordinates":[-80.8431315,35.5024917]}},{"properties":{"size":874,"school_name":"Davis & Elkins College","campus_name":"Main Campus","total_offenses":3},"type":"Feature","geometry":{"type":"Point","coordinates":[-79.84549100000001,38.928793]}},{"properties":{"size":989,"school_name":"Defiance College","campus_name":"Main Campus","total_offenses":3},"type":"Feature","geometry":{"type":"Point","coordinates":[-84.35435030000001,41.2967781]}},{"properties":{"size":4336,"school_name":"Delaware State University","campus_name":"Main Campus","total_offenses":7},"type":"Feature","geometry":{"type":"Point","coordinates":[-75.5415792,39.1879258]}},{"properties":{"size":2023,"school_name":"Delaware Valley University","campus_name":"Delaware Valley University","total_offenses":1},"type":"Feature","geometry":{"type":"Point","coordinates":[-75.1617527,40.297289]}},{"properties":{"size":10272,"school_name":"Delta College","campus_name":"Delta College","total_offenses":2},"type":"Feature","geometry":{"type":"Point","coordinates":[-84.2152297071036,43.6419434]}},{"properties":{"size":4785,"school_name":"Delta State University","campus_name":"Main Campus","total_offenses":1},"type":"Feature","geometry":{"type":"Point","coordinates":[-90.7354508,33.7453784]}},{"properties":{"size":2274,"school_name":"Denison University","campus_name":"Denison University","total_offenses":8},"type":"Feature","geometry":{"type":"Point","coordinates":[-82.5224857800385,40.07300505]}},{"properties":{"size":24414,"school_name":"DePaul University","campus_name":"Main Campus - Lincoln Park Campus","total_offenses":3},"type":"Feature","geometry":{"type":"Point","coordinates":[-87.6550784,41.9239994]}},{"properties":{"size":2396,"school_name":"Dickinson College","campus_name":"Main Campus","total_offenses":5},"type":"Feature","geometry":{"type":"Point","coordinates":[-77.197232,40.2027214]}},{"properties":{"size":8350,"school_name":"Dixie State University","campus_name":"Main Campus","total_offenses":2},"type":"Feature","geometry":{"type":"Point","coordinates":[-113.5666265,37.1018839]}},{"properties":{"size":1998,"school_name":"Dominican College of Blauvelt","campus_name":"Main Campus","total_offenses":2},"type":"Feature","geometry":{"type":"Point","coordinates":[-73.9554794,41.0534881]}},{"properties":{"size":2291,"school_name":"Drew University","campus_name":"Main Campus","total_offenses":5},"type":"Feature","geometry":{"type":"Point","coordinates":[-91.808787,33.5911121]}},{"properties":{"size":26132,"school_name":"Drexel University","campus_name":"University City Campus","total_offenses":10},"type":"Feature","geometry":{"type":"Point","coordinates":[-75.18994409999999,39.95661269999999]}},{"properties":{"size":15467,"school_name":"Duke University","campus_name":"Main Campus","total_offenses":6},"type":"Feature","geometry":{"type":"Point","coordinates":[-80.6701999,32.4359]}},{"properties":{"size":1159,"school_name":"Earlham College","campus_name":"Earlham College","total_offenses":6},"type":"Feature","geometry":{"type":"Point","coordinates":[-84.9132311423539,39.8204275]}},{"properties":{"size":6778,"school_name":"East Stroudsburg University of Pennsylvania","campus_name":"Main Campus","total_offenses":4},"type":"Feature","geometry":{"type":"Point","coordinates":[-75.173508,40.9953916]}},{"properties":{"size":5368,"school_name":"Eastern Connecticut State University","campus_name":"Eastern Connecticut State University","total_offenses":2},"type":"Feature","geometry":{"type":"Point","coordinates":[-72.2176185894789,41.72088445]}},{"properties":{"size":9775,"school_name":"Eastern Illinois University","campus_name":"Main Campus","total_offenses":6},"type":"Feature","geometry":{"type":"Point","coordinates":[-88.1753643,39.4799641]}},{"properties":{"size":16111,"school_name":"Eastern Kentucky University","campus_name":"Main Campus","total_offenses":5},"type":"Feature","geometry":{"type":"Point","coordinates":[-84.301818,37.73851399999999]}},{"properties":{"size":5847,"school_name":"Eastern New Mexico University-Main Campus","campus_name":"Main Campus","total_offenses":2},"type":"Feature","geometry":{"type":"Point","coordinates":[-103.347948,34.178932]}},{"properties":{"size":12791,"school_name":"Eastern Washington University","campus_name":"EWU Main Campus","total_offenses":1},"type":"Feature","geometry":{"type":"Point","coordinates":[-117.584518,47.48978899999999]}},{"properties":{"size":2173,"school_name":"Eckerd College","campus_name":"Main Campus","total_offenses":3},"type":"Feature","geometry":{"type":"Point","coordinates":[-82.68814499999999,27.715871]}},{"properties":{"size":2894,"school_name":"Edgewood College","campus_name":"Edgewood College","total_offenses":1},"type":"Feature","geometry":{"type":"Point","coordinates":[-89.4223447,43.0574955]}},{"properties":{"size":7098,"school_name":"Edinboro University of Pennsylvania","campus_name":"Main Campus","total_offenses":1},"type":"Feature","geometry":{"type":"Point","coordinates":[-80.115177,41.8721304]}},{"properties":{"size":7693,"school_name":"El Camino College-Compton Center","campus_name":"El Camino College Compton Center","total_offenses":1},"type":"Feature","geometry":{"type":"Point","coordinates":[-118.2101624,33.8780253]}},{"properties":{"size":2421,"school_name":"Elizabeth City State University","campus_name":"Elizabeth City State University","total_offenses":4},"type":"Feature","geometry":{"type":"Point","coordinates":[-76.2133641870983,36.2800894]}},{"properties":{"size":1892,"school_name":"Elizabethtown College","campus_name":"Main Campus","total_offenses":7},"type":"Feature","geometry":{"type":"Point","coordinates":[-76.589792,40.1503251]}},{"properties":{"size":1542,"school_name":"Elmira College","campus_name":"Main Campus","total_offenses":2},"type":"Feature","geometry":{"type":"Point","coordinates":[-76.81537050000001,42.0967817]}},{"properties":{"size":6305,"school_name":"Elon University","campus_name":"Elon University","total_offenses":2},"type":"Feature","geometry":{"type":"Point","coordinates":[-79.5028387086123,36.10652745]}},{"properties":{"size":4561,"school_name":"Emerson College","campus_name":"Main Campus","total_offenses":10},"type":"Feature","geometry":{"type":"Point","coordinates":[-71.0657174,42.35208689999999]}},{"properties":{"size":959,"school_name":"Emory & Henry College","campus_name":"Main Campus","total_offenses":2},"type":"Feature","geometry":{"type":"Point","coordinates":[-81.8291477,36.7728668]}},{"properties":{"size":14513,"school_name":"Emory University","campus_name":"Main Campus","total_offenses":22},"type":"Feature","geometry":{"type":"Point","coordinates":[-84.308479,33.7974862]}},{"properties":{"size":14513,"school_name":"Emory University","campus_name":"Emory University Hospital Midtown Campus","total_offenses":3},"type":"Feature","geometry":{"type":"Point","coordinates":[-84.3863899,33.76857740000001]}},{"properties":{"size":5029,"school_name":"Endicott College","campus_name":"Main Campus","total_offenses":5},"type":"Feature","geometry":{"type":"Point","coordinates":[-70.8426648,42.5519539]}},{"properties":{"size":3029,"school_name":"Fairleigh Dickinson University-College at Florham","campus_name":"Florham","total_offenses":4},"type":"Feature","geometry":{"type":"Point","coordinates":[-74.4331984,40.7765416]}},{"properties":{"size":8546,"school_name":"Fairleigh Dickinson University-Metropolitan Campus","campus_name":"Metropolitan","total_offenses":1},"type":"Feature","geometry":{"type":"Point","coordinates":[-74.0307361999247,40.8980353]}},{"properties":{"size":4232,"school_name":"Fairmont State University","campus_name":"Fairmont State University","total_offenses":1},"type":"Feature","geometry":{"type":"Point","coordinates":[-80.1618191,39.4843305]}},{"properties":{"size":1512,"school_name":"Ferrum College","campus_name":"Ferrum College","total_offenses":4},"type":"Feature","geometry":{"type":"Point","coordinates":[-80.023927,36.9265269]}},{"properties":{"size":646,"school_name":"Fisk University","campus_name":"Fisk University","total_offenses":1},"type":"Feature","geometry":{"type":"Point","coordinates":[-86.8047325,36.167005]}},{"properties":{"size":6680,"school_name":"Fitchburg State University","campus_name":"Main Campus","total_offenses":2},"type":"Feature","geometry":{"type":"Point","coordinates":[-71.7898178,42.5882662]}},{"properties":{"size":10743,"school_name":"Florida Agricultural and Mechanical University","campus_name":"Main Campus","total_offenses":4},"type":"Feature","geometry":{"type":"Point","coordinates":[-84.2872378,30.4256084]}},{"properties":{"size":30759,"school_name":"Florida Atlantic University","campus_name":"Boca Raton","total_offenses":2},"type":"Feature","geometry":{"type":"Point","coordinates":[-80.1020161,26.370617]}},{"properties":{"size":5644,"school_name":"Florida Institute of Technology","campus_name":"Main Campus","total_offenses":1},"type":"Feature","geometry":{"type":"Point","coordinates":[-80.6231696,28.0646385]}},{"properties":{"size":47663,"school_name":"Florida International University","campus_name":"Modesto A. Maidique Campus","total_offenses":2},"type":"Feature","geometry":{"type":"Point","coordinates":[-80.3762888746807,25.75533775]}},{"properties":{"size":2272,"school_name":"Fond du Lac Tribal and Community College","campus_name":"Main Campus","total_offenses":2},"type":"Feature","geometry":{"type":"Point","coordinates":[-92.4518942,46.6899937]}},{"properties":{"size":6429,"school_name":"Framingham State University","campus_name":"Main Campus","total_offenses":6},"type":"Feature","geometry":{"type":"Point","coordinates":[-71.4366781,42.2977514]}},{"properties":{"size":2733,"school_name":"Franciscan University of Steubenville","campus_name":"Main Campus","total_offenses":4},"type":"Feature","geometry":{"type":"Point","coordinates":[-80.6203713,40.3765186]}},{"properties":{"size":2204,"school_name":"Franklin Pierce University","campus_name":"Main Campus","total_offenses":9},"type":"Feature","geometry":{"type":"Point","coordinates":[-72.05553929999999,42.7789743]}},{"properties":{"size":5473,"school_name":"Frostburg State University","campus_name":"Main Campus","total_offenses":4},"type":"Feature","geometry":{"type":"Point","coordinates":[-78.9330554,39.6505499]}},{"properties":{"size":4211,"school_name":"Gannon University","campus_name":"Main Campus","total_offenses":3},"type":"Feature","geometry":{"type":"Point","coordinates":[-80.0865882,42.1282445]}},{"properties":{"size":4656,"school_name":"Gardner-Webb University","campus_name":"Main Campus","total_offenses":1},"type":"Feature","geometry":{"type":"Point","coordinates":[-81.6674239,35.25022539999999]}},{"properties":{"size":1852,"school_name":"Geneva College","campus_name":"Main Campus","total_offenses":2},"type":"Feature","geometry":{"type":"Point","coordinates":[-80.32327699999999,40.7715964]}},{"properties":{"size":33917,"school_name":"George Mason University","campus_name":"Main Campus","total_offenses":10},"type":"Feature","geometry":{"type":"Point","coordinates":[-77.3115849,38.8343675]}},{"properties":{"size":25264,"school_name":"George Washington University","campus_name":"Mount Vernon Campus","total_offenses":1},"type":"Feature","geometry":{"type":"Point","coordinates":[-77.0901608,38.9182653]}},{"properties":{"size":1399,"school_name":"Georgetown College","campus_name":"Georgetown College","total_offenses":1},"type":"Feature","geometry":{"type":"Point","coordinates":[-84.554702,38.2072849]}},{"properties":{"size":17849,"school_name":"Georgetown University","campus_name":"Georgetown University Main Campus","total_offenses":7},"type":"Feature","geometry":{"type":"Point","coordinates":[-77.07225849999999,38.9076089]}},{"properties":{"size":21123,"school_name":"Georgia Perimeter College","campus_name":"Decatur Campus","total_offenses":1},"type":"Feature","geometry":{"type":"Point","coordinates":[-84.2743666,33.6887185]}},{"properties":{"size":8468,"school_name":"Georgia Regents University","campus_name":"GRU Summerville Campus - Augusta","total_offenses":1},"type":"Feature","geometry":{"type":"Point","coordinates":[-81.9898848,33.4709094]}},{"properties":{"size":15744,"school_name":"Glendale Community College","campus_name":"Main Campus","total_offenses":3},"type":"Feature","geometry":{"type":"Point","coordinates":[-112.1901081,33.5708012]}},{"properties":{"size":12717,"school_name":"Golden West College","campus_name":"Golden West College","total_offenses":1},"type":"Feature","geometry":{"type":"Point","coordinates":[-118.003554576687,33.73286745]}},{"properties":{"size":7605,"school_name":"Gonzaga University","campus_name":"Main Campus","total_offenses":9},"type":"Feature","geometry":{"type":"Point","coordinates":[-117.4025037,47.6681035]}},{"properties":{"size":2073,"school_name":"Gordon College","campus_name":"Fowler Campus","total_offenses":1},"type":"Feature","geometry":{"type":"Point","coordinates":[-70.82374100000001,42.59078299999999]}},{"properties":{"size":4187,"school_name":"Gordon State College","campus_name":"Main Campus","total_offenses":1},"type":"Feature","geometry":{"type":"Point","coordinates":[-84.150109,33.047455]}},{"properties":{"size":2111,"school_name":"Goucher College","campus_name":"Main Campus","total_offenses":4},"type":"Feature","geometry":{"type":"Point","coordinates":[-76.59654499999999,39.408765]}},{"properties":{"size":5071,"school_name":"Grambling State University","campus_name":"GRAMBLING STATE UNIVERSITY","total_offenses":5},"type":"Feature","geometry":{"type":"Point","coordinates":[-92.7159887,32.5242494]}},{"properties":{"size":24477,"school_name":"Grand Valley State University","campus_name":"Allendale Campus","total_offenses":4},"type":"Feature","geometry":{"type":"Point","coordinates":[-85.8905394,42.9634911]}},{"properties":{"size":2129,"school_name":"Grand View University","campus_name":"Main Campus","total_offenses":1},"type":"Feature","geometry":{"type":"Point","coordinates":[-93.60436179999999,41.62079149999999]}},{"properties":{"size":7801,"school_name":"Green River Community College","campus_name":"Main Campus","total_offenses":1},"type":"Feature","geometry":{"type":"Point","coordinates":[-122.1780538,47.3134935]}},{"properties":{"size":1721,"school_name":"Grinnell College","campus_name":"Main Campus","total_offenses":8},"type":"Feature","geometry":{"type":"Point","coordinates":[-92.7201302,41.74905709999999]}},{"properties":{"size":2449,"school_name":"Gustavus Adolphus College","campus_name":"Gustavus Adolphus College","total_offenses":4},"type":"Feature","geometry":{"type":"Point","coordinates":[-93.9741238417058,44.32177095]}},{"properties":{"size":4905,"school_name":"Hagerstown Community College","campus_name":"Main Campus","total_offenses":1},"type":"Feature","geometry":{"type":"Point","coordinates":[-77.668628,39.631864]}},{"properties":{"size":4581,"school_name":"Hamline University","campus_name":"Main Campus","total_offenses":3},"type":"Feature","geometry":{"type":"Point","coordinates":[-93.16472499999999,44.9652951]}},{"properties":{"size":1492,"school_name":"Hampshire College","campus_name":"HAMPSHIRE COLLEGE","total_offenses":20},"type":"Feature","geometry":{"type":"Point","coordinates":[-72.5323990657152,42.32459775]}},{"properties":{"size":1163,"school_name":"Hanover College","campus_name":"Hanover College","total_offenses":1},"type":"Feature","geometry":{"type":"Point","coordinates":[-85.4611299,38.71415]}},{"properties":{"size":6238,"school_name":"Harding University","campus_name":"Main Campus","total_offenses":1},"type":"Feature","geometry":{"type":"Point","coordinates":[-91.7261195,35.248876]}},{"properties":{"size":28297,"school_name":"Harvard University","campus_name":"Cambridge Campus","total_offenses":40},"type":"Feature","geometry":{"type":"Point","coordinates":[-71.11666009999999,42.3770029]}},{"properties":{"size":807,"school_name":"Harvey Mudd College","campus_name":"Main Campus","total_offenses":4},"type":"Feature","geometry":{"type":"Point","coordinates":[-117.7093147,34.106067]}},{"properties":{"size":1144,"school_name":"Hastings College","campus_name":"Main Campus","total_offenses":2},"type":"Feature","geometry":{"type":"Point","coordinates":[-98.3298657658218,40.57805895]}},{"properties":{"size":1187,"school_name":"Haverford College","campus_name":"Main Campus","total_offenses":4},"type":"Feature","geometry":{"type":"Point","coordinates":[-75.305318,40.00665239999999]}},{"properties":{"size":1241,"school_name":"Heidelberg University","campus_name":"Main Campus","total_offenses":2},"type":"Feature","geometry":{"type":"Point","coordinates":[-83.16626819999999,41.1142589]}},{"properties":{"size":3583,"school_name":"Henderson State University","campus_name":"Henderson State University","total_offenses":2},"type":"Feature","geometry":{"type":"Point","coordinates":[-93.0598952,34.1278736]}},{"properties":{"size":1444,"school_name":"Hendrix College","campus_name":"Main Campus","total_offenses":9},"type":"Feature","geometry":{"type":"Point","coordinates":[-92.4420118,35.1000469]}},{"properties":{"size":4199,"school_name":"High Point University","campus_name":"Main Campus","total_offenses":6},"type":"Feature","geometry":{"type":"Point","coordinates":[-79.9947325,35.9718429]}},{"properties":{"size":1311,"school_name":"Hiram College","campus_name":"Main Campus","total_offenses":5},"type":"Feature","geometry":{"type":"Point","coordinates":[-81.1439907,41.3106764]}},{"properties":{"size":2372,"school_name":"Hobart William Smith Colleges","campus_name":"Main Campus","total_offenses":12},"type":"Feature","geometry":{"type":"Point","coordinates":[-76.981471,42.85897509999999]}},{"properties":{"size":4094,"school_name":"Hocking College","campus_name":"Main Campus","total_offenses":4},"type":"Feature","geometry":{"type":"Point","coordinates":[-82.4581299,39.5585]}},{"properties":{"size":10928,"school_name":"Hofstra University","campus_name":"Main Campus","total_offenses":5},"type":"Feature","geometry":{"type":"Point","coordinates":[-73.60323989999999,40.7134957]}},{"properties":{"size":3388,"school_name":"Hope College","campus_name":"Main Campus","total_offenses":1},"type":"Feature","geometry":{"type":"Point","coordinates":[-86.1037955,42.7887722]}},{"properties":{"size":10297,"school_name":"Howard University","campus_name":"Howard University Main Campus","total_offenses":7},"type":"Feature","geometry":{"type":"Point","coordinates":[-77.0194377,38.9226843]}},{"properties":{"size":8293,"school_name":"Humboldt State University","campus_name":"Humboldt State University","total_offenses":4},"type":"Feature","geometry":{"type":"Point","coordinates":[-124.08085264535,40.87635235]}},{"properties":{"size":3049,"school_name":"Husson University","campus_name":"Husson University-Bangor","total_offenses":1},"type":"Feature","geometry":{"type":"Point","coordinates":[-68.7930918,44.8272926]}},{"properties":{"size":973,"school_name":"Huston-Tillotson University","campus_name":"Huston-Tillotson University","total_offenses":2},"type":"Feature","geometry":{"type":"Point","coordinates":[-97.7223212,30.2645512]}},{"properties":{"size":13326,"school_name":"Idaho State University","campus_name":"ISU -- Pocatello","total_offenses":3},"type":"Feature","geometry":{"type":"Point","coordinates":[-112.4330327,42.86140169999999]}},{"properties":{"size":1028,"school_name":"Illinois College","campus_name":"Main Campus","total_offenses":2},"type":"Feature","geometry":{"type":"Point","coordinates":[-90.24674999999999,39.730211]}},{"properties":{"size":7850,"school_name":"Illinois Institute of Technology","campus_name":"Main Campus","total_offenses":1},"type":"Feature","geometry":{"type":"Point","coordinates":[-87.6270059,41.8348731]}},{"properties":{"size":20272,"school_name":"Illinois State University","campus_name":"Main Campus","total_offenses":4},"type":"Feature","geometry":{"type":"Point","coordinates":[-88.99354930000001,40.5109769]}},{"properties":{"size":2009,"school_name":"Illinois Wesleyan University","campus_name":"Main Campus","total_offenses":4},"type":"Feature","geometry":{"type":"Point","coordinates":[-88.99038430000002,40.49108349999999]}},{"properties":{"size":3675,"school_name":"Immaculata University","campus_name":"Main Campus","total_offenses":2},"type":"Feature","geometry":{"type":"Point","coordinates":[-75.5689967,40.0294054]}},{"properties":{"size":4604,"school_name":"Indian Hills Community College","campus_name":"Ottumwa Campus","total_offenses":2},"type":"Feature","geometry":{"type":"Point","coordinates":[-92.396395,41.04405599999999]}},{"properties":{"size":14925,"school_name":"Indiana University of Pennsylvania-Main Campus","campus_name":"Main Campus","total_offenses":4},"type":"Feature","geometry":{"type":"Point","coordinates":[-79.158242,40.6169]}},{"properties":{"size":13459,"school_name":"Indiana University-Purdue University-Fort Wayne","campus_name":"Main Campus","total_offenses":5},"type":"Feature","geometry":{"type":"Point","coordinates":[-85.10636099999999,41.1215158]}},{"properties":{"size":30488,"school_name":"Indiana University-Purdue University-Indianapolis","campus_name":"IUSM  Bloomington","total_offenses":15},"type":"Feature","geometry":{"type":"Point","coordinates":[-86.51425479999999,39.17037860000001]}},{"properties":{"size":30488,"school_name":"Indiana University-Purdue University-Indianapolis","campus_name":"IUSM  Ft. Wayne","total_offenses":4},"type":"Feature","geometry":{"type":"Point","coordinates":[-85.10636099999999,41.1215158]}},{"properties":{"size":30488,"school_name":"Indiana University-Purdue University-Indianapolis","campus_name":"IUSM  Lafayette","total_offenses":6},"type":"Feature","geometry":{"type":"Point","coordinates":[-86.176177,39.77416199999999]}},{"properties":{"size":30488,"school_name":"Indiana University-Purdue University-Indianapolis","campus_name":"IUSM  Muncie","total_offenses":17},"type":"Feature","geometry":{"type":"Point","coordinates":[-85.456223,40.18144189999999]}},{"properties":{"size":30488,"school_name":"Indiana University-Purdue University-Indianapolis","campus_name":"IUSM  South Bend","total_offenses":16},"type":"Feature","geometry":{"type":"Point","coordinates":[-86.176177,39.77416199999999]}},{"properties":{"size":30488,"school_name":"Indiana University-Purdue University-Indianapolis","campus_name":"IUSM  Terre Haute","total_offenses":6},"type":"Feature","geometry":{"type":"Point","coordinates":[-86.176177,39.77416199999999]}},{"properties":{"size":5697,"school_name":"Iowa Central Community College","campus_name":"Main Campus","total_offenses":1},"type":"Feature","geometry":{"type":"Point","coordinates":[-94.2040198,42.4903509]}},{"properties":{"size":6861,"school_name":"Iowa Western Community College","campus_name":"Main Campus","total_offenses":8},"type":"Feature","geometry":{"type":"Point","coordinates":[-95.801108,41.272829]}},{"properties":{"size":6723,"school_name":"Ithaca College","campus_name":"Main Campus","total_offenses":2},"type":"Feature","geometry":{"type":"Point","coordinates":[-76.4950805,42.4221462]}},{"properties":{"size":12454,"school_name":"J Sargeant Reynolds Community College","campus_name":"Downtown Campus","total_offenses":1},"type":"Feature","geometry":{"type":"Point","coordinates":[-77.4313094057615,37.5457002]}},{"properties":{"size":5178,"school_name":"Jamestown Community College","campus_name":"Jamestown Campus","total_offenses":2},"type":"Feature","geometry":{"type":"Point","coordinates":[-79.2199999,42.1155556]}},{"properties":{"size":3931,"school_name":"Jefferson Community College","campus_name":"Main Campus","total_offenses":1},"type":"Feature","geometry":{"type":"Point","coordinates":[-75.934691,43.99223099999999]}},{"properties":{"size":2325,"school_name":"Johnson & Wales University-Charlotte","campus_name":"Johnson & Wales University -- Charlotte Campus","total_offenses":3},"type":"Feature","geometry":{"type":"Point","coordinates":[-80.8509083,35.2327195]}},{"properties":{"size":10369,"school_name":"Johnson & Wales University-Providence","campus_name":"Main Campus","total_offenses":6},"type":"Feature","geometry":{"type":"Point","coordinates":[-71.4131324,41.8199253]}},{"properties":{"size":1387,"school_name":"Johnson C Smith University","campus_name":"Main Campus  Johnson C. Smith University","total_offenses":6},"type":"Feature","geometry":{"type":"Point","coordinates":[-80.8576346,35.2445186]}},{"properties":{"size":19672,"school_name":"Johnson County Community College","campus_name":"Main Campus","total_offenses":7},"type":"Feature","geometry":{"type":"Point","coordinates":[-94.7303012,38.92318720000001]}},{"properties":{"size":1635,"school_name":"Juniata College","campus_name":"Main Campus","total_offenses":2},"type":"Feature","geometry":{"type":"Point","coordinates":[-78.01661969999999,40.49944199999999]}},{"properties":{"size":14404,"school_name":"Kean University","campus_name":"Main Campus","total_offenses":6},"type":"Feature","geometry":{"type":"Point","coordinates":[-74.2342991964695,40.6786462]}},{"properties":{"size":4923,"school_name":"Keene State College","campus_name":"Keene State College","total_offenses":3},"type":"Feature","geometry":{"type":"Point","coordinates":[-72.2787645,42.9273497]}},{"properties":{"size":24629,"school_name":"Kennesaw State University","campus_name":"Main Campus","total_offenses":8},