{"type":"FeatureCollection","features":[{"type":"Feature","geometry":{"type":"Point","coordinates":[-80.039534612632,40.5658282]},"properties":{"school_name":"Allegheny College","campus_name":"Main Campus","total_offenses":4,"size":2140}},{"type":"Feature","geometry":{"type":"Point","coordinates":[-85.4070441,40.2011355]},"properties":{"school_name":"Ball State University","campus_name":"Main Campus","total_offenses":11,"size":21053}},{"type":"Feature","geometry":{"type":"Point","coordinates":[-92.40695,34.713096]},"properties":{"school_name":"Baptist Health Schools-Little Rock","campus_name":"Main Campus","total_offenses":3,"size":910}},{"type":"Feature","geometry":{"type":"Point","coordinates":[-98.568129,29.516944]},"properties":{"school_name":"Baptist Health System School of Health Professions","campus_name":"Main campus","total_offenses":2,"size":450}},{"type":"Feature","geometry":{"type":"Point","coordinates":[-73.9639632,40.8090974]},"properties":{"school_name":"Barnard College","campus_name":"Main Campus","total_offenses":1,"size":2504}},{"type":"Feature","geometry":{"type":"Point","coordinates":[-86.1737493346481,39.8407191]},"properties":{"school_name":"Butler University","campus_name":"Butler University","total_offenses":2,"size":4712}},{"type":"Feature","geometry":{"type":"Point","coordinates":[-120.6624942,35.3050053]},"properties":{"school_name":"California Polytechnic State University-San Luis Obispo","campus_name":"Main Campus","total_offenses":1,"size":18679}},{"type":"Feature","geometry":{"type":"Point","coordinates":[-121.8463457,39.7279291]},"properties":{"school_name":"California State University-Chico","campus_name":"Main Campus","total_offenses":5,"size":16470}},{"type":"Feature","geometry":{"type":"Point","coordinates":[-118.1140904,33.7838235]},"properties":{"school_name":"California State University-Long Beach","campus_name":"Main Campus","total_offenses":3,"size":36279}},{"type":"Feature","geometry":{"type":"Point","coordinates":[-121.4241199,38.5626837]},"properties":{"school_name":"California State University-Sacramento","campus_name":"Sacramento State","total_offenses":7,"size":28539}},{"type":"Feature","geometry":{"type":"Point","coordinates":[-79.9434567,40.4434658]},"properties":{"school_name":"Carnegie Mellon University","campus_name":"Main Campus","total_offenses":17,"size":11978}},{"type":"Feature","geometry":{"type":"Point","coordinates":[-88.2279985,43.00449990000001]},"properties":{"school_name":"Carroll University","campus_name":"Main Campus","total_offenses":5,"size":3571}},{"type":"Feature","geometry":{"type":"Point","coordinates":[-81.6083838,41.5043413]},"properties":{"school_name":"Case Western Reserve University","campus_name":"Main Campus","total_offenses":13,"size":10026}},{"type":"Feature","geometry":{"type":"Point","coordinates":[-73.1780814,43.60939359999999]},"properties":{"school_name":"Castleton State College","campus_name":"Main Campus","total_offenses":5,"size":2156}},{"type":"Feature","geometry":{"type":"Point","coordinates":[-79.72988889999999,41.4080527]},"properties":{"school_name":"Clarion University of Pennsylvania","campus_name":"Main Campus","total_offenses":2,"size":6520}},{"type":"Feature","geometry":{"type":"Point","coordinates":[-105.0865473,40.573436]},"properties":{"school_name":"Colorado State University-Fort Collins","campus_name":"Main Campus","total_offenses":14,"size":30659}},{"type":"Feature","geometry":{"type":"Point","coordinates":[-122.6371031,45.570176]},"properties":{"school_name":"Concordia University-Portland","campus_name":"Main Campus","total_offenses":8,"size":3111}},{"type":"Feature","geometry":{"type":"Point","coordinates":[-76.4735027,42.4534492]},"properties":{"school_name":"Cornell University","campus_name":"Statutory and Endowed Campus","total_offenses":18,"size":21424}},{"type":"Feature","geometry":{"type":"Point","coordinates":[-101.9378372,33.5757278]},"properties":{"school_name":"Covenant School of Nursing and Allied Health","campus_name":"Main Campus","total_offenses":7,"size":309}},{"type":"Feature","geometry":{"type":"Point","coordinates":[-73.91058,40.85648190000001]},"properties":{"school_name":"CUNY Bronx Community College","campus_name":"Main Campus","total_offenses":4,"size":11287}},{"type":"Feature","geometry":{"type":"Point","coordinates":[-78.7890134,42.9647379]},"properties":{"school_name":"Daemen College","campus_name":"Main Campus","total_offenses":1,"size":2966}},{"type":"Feature","geometry":{"type":"Point","coordinates":[-72.2886934,43.70444059999999]},"properties":{"school_name":"Dartmouth College","campus_name":"Dartmouth College  Main Campus","total_offenses":24,"size":6277}},{"type":"Feature","geometry":{"type":"Point","coordinates":[-75.18994409999999,39.95661269999999]},"properties":{"school_name":"Drexel University","campus_name":"University City Campus","total_offenses":9,"size":25500}},{"type":"Feature","geometry":{"type":"Point","coordinates":[-77.367156511714,35.60737685]},"properties":{"school_name":"East Carolina University","campus_name":"East Carolina University","total_offenses":13,"size":26947}},{"type":"Feature","geometry":{"type":"Point","coordinates":[-118.088511,45.31984599999999]},"properties":{"school_name":"Eastern Oregon University","campus_name":"Main Campus","total_offenses":12,"size":4208}},{"type":"Feature","geometry":{"type":"Point","coordinates":[-117.584518,47.48978899999999]},"properties":{"school_name":"Eastern Washington University","campus_name":"EWU Main Campus","total_offenses":4,"size":12587}},{"type":"Feature","geometry":{"type":"Point","coordinates":[-85.4856344,43.68484319999999]},"properties":{"school_name":"Ferris State University","campus_name":"Main Campus","total_offenses":3,"size":14533}},{"type":"Feature","geometry":{"type":"Point","coordinates":[-80.023927,36.9265269]},"properties":{"school_name":"Ferrum College","campus_name":"Ferrum College","total_offenses":4,"size":1510}},{"type":"Feature","geometry":{"type":"Point","coordinates":[-81.7736279,26.4640491]},"properties":{"school_name":"Florida Gulf Coast University","campus_name":"Main Campus","total_offenses":3,"size":13445}},{"type":"Feature","geometry":{"type":"Point","coordinates":[-84.2984889,30.4418778]},"properties":{"school_name":"Florida State University","campus_name":"Main Campus","total_offenses":6,"size":40695}},{"type":"Feature","geometry":{"type":"Point","coordinates":[-76.31791299999999,40.04748]},"properties":{"school_name":"Franklin and Marshall College","campus_name":"Franklin and Marshall College Main Campus","total_offenses":11,"size":2365}},{"type":"Feature","geometry":{"type":"Point","coordinates":[-77.0485992,38.89971450000001]},"properties":{"school_name":"George Washington University","campus_name":"Main Campus","total_offenses":14,"size":25653}},{"type":"Feature","geometry":{"type":"Point","coordinates":[-84.39628499999999,33.77561779999999]},"properties":{"school_name":"Georgia Institute of Technology-Main Campus","campus_name":"Main Campus","total_offenses":9,"size":21557}},{"type":"Feature","geometry":{"type":"Point","coordinates":[-77.2316189,39.8354367]},"properties":{"school_name":"Gettysburg College","campus_name":"Main Campus","total_offenses":5,"size":2600}},{"type":"Feature","geometry":{"type":"Point","coordinates":[-93.9741238417058,44.32177095]},"properties":{"school_name":"Gustavus Adolphus College","campus_name":"Gustavus Adolphus College","total_offenses":6,"size":2526}},{"type":"Feature","geometry":{"type":"Point","coordinates":[-81.1439907,41.3106764]},"properties":{"school_name":"Hiram College","campus_name":"Main Campus","total_offenses":2,"size":1324}},{"type":"Feature","geometry":{"type":"Point","coordinates":[-87.407056,39.468549]},"properties":{"school_name":"Indiana State University","campus_name":"Main Campus","total_offenses":11,"size":12114}},{"type":"Feature","geometry":{"type":"Point","coordinates":[-86.51425479999999,39.17037860000001]},"properties":{"school_name":"Indiana University-Bloomington","campus_name":"Indiana University - Bloomington Campus","total_offenses":35,"size":42133}},{"type":"Feature","geometry":{"type":"Point","coordinates":[-86.176177,39.77416199999999]},"properties":{"school_name":"Indiana University-Purdue University-Indianapolis","campus_name":"Main Campus","total_offenses":2,"size":30451}},{"type":"Feature","geometry":{"type":"Point","coordinates":[-86.2219606,41.66565849999999]},"properties":{"school_name":"Indiana University-South Bend","campus_name":"Main Campus","total_offenses":1,"size":8490}},{"type":"Feature","geometry":{"type":"Point","coordinates":[-93.6464654,42.0266187]},"properties":{"school_name":"Iowa State University","campus_name":"Iowa State University","total_offenses":12,"size":30748}},{"type":"Feature","geometry":{"type":"Point","coordinates":[-78.8697548,38.435092]},"properties":{"school_name":"James Madison University","campus_name":"Main Campus-Harrisonburg","total_offenses":5,"size":19927}},{"type":"Feature","geometry":{"type":"Point","coordinates":[-79.9395406,37.2660926]},"properties":{"school_name":"Jefferson College of Health Sciences","campus_name":"JCHS Main Campus","total_offenses":1,"size":1048}},{"type":"Feature","geometry":{"type":"Point","coordinates":[-76.6205177,39.3299013]},"properties":{"school_name":"Johns Hopkins University","campus_name":"JHU  HOMEWOOD  CAMPUS- BALTIMORE- MARYLAND","total_offenses":8,"size":20871}},{"type":"Feature","geometry":{"type":"Point","coordinates":[-71.4131324,41.8199253]},"properties":{"school_name":"Johnson & Wales University-Providence","campus_name":"Main Campus","total_offenses":8,"size":10623}},{"type":"Feature","geometry":{"type":"Point","coordinates":[-94.7303012,38.92318720000001]},"properties":{"school_name":"Johnson County Community College","campus_name":"Main Campus","total_offenses":5,"size":20421}},{"type":"Feature","geometry":{"type":"Point","coordinates":[-78.01661969999999,40.49944199999999]},"properties":{"school_name":"Juniata College","campus_name":"Main Campus","total_offenses":1,"size":1565}},{"type":"Feature","geometry":{"type":"Point","coordinates":[-94.843008910629,38.92929125]},"properties":{"school_name":"Kansas State University","campus_name":"Main Campus","total_offenses":5,"size":24378}},{"type":"Feature","geometry":{"type":"Point","coordinates":[-84.58167499999999,34.038278]},"properties":{"school_name":"Kennesaw State University","campus_name":"Main Campus","total_offenses":3,"size":24604}},{"type":"Feature","geometry":{"type":"Point","coordinates":[-81.34146489999999,41.1490629]},"properties":{"school_name":"Kent State University at Kent","campus_name":"Main Campus","total_offenses":5,"size":28602}},{"type":"Feature","geometry":{"type":"Point","coordinates":[-71.2446266,42.3432053]},"properties":{"school_name":"Lasell College","campus_name":"Main Campus","total_offenses":3,"size":1980}},{"type":"Feature","geometry":{"type":"Point","coordinates":[-72.5969145,41.9234491]},"properties":{"school_name":"Lincoln Technical Institute-East Windsor","campus_name":"Lincoln Technical Institute","total_offenses":1,"size":1069}},{"type":"Feature","geometry":{"type":"Point","coordinates":[-123.199224,45.20060600000001]},"properties":{"school_name":"Linfield College-McMinnville Campus","campus_name":"Main Campus","total_offenses":2,"size":1663}},{"type":"Feature","geometry":{"type":"Point","coordinates":[-83.403497,42.38428409999999]},"properties":{"school_name":"Madonna University","campus_name":"Main Campus","total_offenses":1,"size":4382}},{"type":"Feature","geometry":{"type":"Point","coordinates":[-87.9313731,43.0381561]},"properties":{"school_name":"Marquette University","campus_name":"Main Campus","total_offenses":11,"size":11749}},{"type":"Feature","geometry":{"type":"Point","coordinates":[-71.0956777766393,42.3583961]},"properties":{"school_name":"Massachusetts Institute of Technology","campus_name":"MIT","total_offenses":14,"size":11189}},{"type":"Feature","geometry":{"type":"Point","coordinates":[-89.8154883,38.6088277]},"properties":{"school_name":"McKendree University","campus_name":"Main Campus","total_offenses":2,"size":3036}},{"type":"Feature","geometry":{"type":"Point","coordinates":[-93.0738391755929,44.9574968]},"properties":{"school_name":"Metropolitan State University","campus_name":"Main Campus","total_offenses":1,"size":8527}},{"type":"Feature","geometry":{"type":"Point","coordinates":[-104.984174,39.913537]},"properties":{"school_name":"Metropolitan State University of Denver","campus_name":"Main Campus","total_offenses":6,"size":23381}},{"type":"Feature","geometry":{"type":"Point","coordinates":[-84.73087679999999,39.5105334]},"properties":{"school_name":"Miami University-Oxford","campus_name":"Miami University-Oxford (204024)","total_offenses":18,"size":17683}},{"type":"Feature","geometry":{"type":"Point","coordinates":[-84.4821719,42.701848]},"properties":{"school_name":"Michigan State University","campus_name":"Main Campus","total_offenses":22,"size":48783}},{"type":"Feature","geometry":{"type":"Point","coordinates":[-88.54453149999999,47.1170514]},"properties":{"school_name":"Michigan Technological University","campus_name":"Main Campus","total_offenses":2,"size":6933}},{"type":"Feature","geometry":{"type":"Point","coordinates":[-98.5233501,33.8743771]},"properties":{"school_name":"Midwestern State University","campus_name":"Main Campus","total_offenses":2,"size":5916}},{"type":"Feature","geometry":{"type":"Point","coordinates":[-94.000382,44.1464045]},"properties":{"school_name":"Minnesota State University-Mankato","campus_name":"Main Campus","total_offenses":7,"size":15441}},{"type":"Feature","geometry":{"type":"Point","coordinates":[-93.28094209999999,37.2009158]},"properties":{"school_name":"Missouri State University-Springfield","campus_name":"Springfield Campus","total_offenses":4,"size":20629}},{"type":"Feature","geometry":{"type":"Point","coordinates":[-91.7751663408198,37.95159385]},"properties":{"school_name":"Missouri University of Science and Technology","campus_name":"Missouri S&T","total_offenses":6,"size":7645}},{"type":"Feature","geometry":{"type":"Point","coordinates":[-74.0057703,40.2792643]},"properties":{"school_name":"Monmouth University","campus_name":"Monmouth University","total_offenses":2,"size":6472}},{"type":"Feature","geometry":{"type":"Point","coordinates":[-111.3002531,47.4884885]},"properties":{"school_name":"Montana State University","campus_name":"Main Campus","total_offenses":3,"size":14269}},{"type":"Feature","geometry":{"type":"Point","coordinates":[-77.02520539999999,38.98648499999999]},"properties":{"school_name":"Montgomery College","campus_name":"Montgomery College:Takoma Park/Silver Spring","total_offenses":1,"size":27453}},{"type":"Feature","geometry":{"type":"Point","coordinates":[-71.1931231,42.29384510000001]},"properties":{"school_name":"Mount Ida College","campus_name":"Main Campus","total_offenses":2,"size":1389}},{"type":"Feature","geometry":{"type":"Point","coordinates":[-88.3213825,36.6155773]},"properties":{"school_name":"Murray State University","campus_name":"Main Campus","total_offenses":6,"size":10832}},{"type":"Feature","geometry":{"type":"Point","coordinates":[-74.1770884,40.7427996]},"properties":{"school_name":"New Jersey Institute of Technology","campus_name":"Main Campus","total_offenses":2,"size":9944}},{"type":"Feature","geometry":{"type":"Point","coordinates":[-73.9964609,40.72951339999999]},"properties":{"school_name":"New York University","campus_name":"NYU Main Campus","total_offenses":11,"size":44516}},{"type":"Feature","geometry":{"type":"Point","coordinates":[-78.6779676,35.7686746]},"properties":{"school_name":"North Carolina State University at Raleigh","campus_name":"Main Campus","total_offenses":6,"size":34340}},{"type":"Feature","geometry":{"type":"Point","coordinates":[-96.80139539999999,46.89217829999999]},"properties":{"school_name":"North Dakota State University-Main Campus","campus_name":"Main Campus","total_offenses":8,"size":14443}},{"type":"Feature","geometry":{"type":"Point","coordinates":[-111.653237,35.1901948]},"properties":{"school_name":"Northern Arizona University","campus_name":"Flagstaff Mountain Campus","total_offenses":18,"size":25991}},{"type":"Feature","geometry":{"type":"Point","coordinates":[-77.2363500664837,38.8339054]},"properties":{"school_name":"Northern Virginia Community College","campus_name":"Annandale Campus","total_offenses":3,"size":51864}},{"type":"Feature","geometry":{"type":"Point","coordinates":[-77.1151796,38.8397685]},"properties":{"school_name":"Northern Virginia Community College","campus_name":"Alexandria Campus","total_offenses":9,"size":51864}},{"type":"Feature","geometry":{"type":"Point","coordinates":[-77.3917104909525,39.03090515]},"properties":{"school_name":"Northern Virginia Community College","campus_name":"Loudoun Campus","total_offenses":6,"size":51864}},{"type":"Feature","geometry":{"type":"Point","coordinates":[-77.518088885921,38.80801965]},"properties":{"school_name":"Northern Virginia Community College","campus_name":"Manassas Campus","total_offenses":2,"size":51864}},{"type":"Feature","geometry":{"type":"Point","coordinates":[-94.8862473438229,40.35422615]},"properties":{"school_name":"Northwest Missouri State University","campus_name":"Northwest Missouri State University","total_offenses":3,"size":6831}},{"type":"Feature","geometry":{"type":"Point","coordinates":[-89.4194608,43.0739488]},"properties":{"school_name":"Oakland University","campus_name":"Main Campus","total_offenses":7,"size":19740}},{"type":"Feature","geometry":{"type":"Point","coordinates":[-118.210520092645,34.1273342]},"properties":{"school_name":"Occidental College","campus_name":"Occidental College","total_offenses":11,"size":2178}},{"type":"Feature","geometry":{"type":"Point","coordinates":[-83.03091429999999,40.0141905]},"properties":{"school_name":"Ohio State University-Main Campus","campus_name":"Main Campus","total_offenses":26,"size":56387}},{"type":"Feature","geometry":{"type":"Point","coordinates":[-82.10138889999999,39.324358]},"properties":{"school_name":"Ohio University-Main Campus","campus_name":"Ohio University - Main Campus","total_offenses":14,"size":27402}},{"type":"Feature","geometry":{"type":"Point","coordinates":[-97.07372219999999,36.12702360000001]},"properties":{"school_name":"Oklahoma State University-Main Campus","campus_name":"Oklahoma State University - Stillwater","total_offenses":14,"size":25708}},{"type":"Feature","geometry":{"type":"Point","coordinates":[-122.685695204464,45.499038]},"properties":{"school_name":"Oregon Health & Science University","campus_name":"Oregon Health & Science University","total_offenses":6,"size":2849}},{"type":"Feature","geometry":{"type":"Point","coordinates":[-123.274906,44.564438]},"properties":{"school_name":"Oregon State University","campus_name":"Main Campus","total_offenses":11,"size":26363}},{"type":"Feature","geometry":{"type":"Point","coordinates":[-122.4417973,47.1464936]},"properties":{"school_name":"Pacific Lutheran University","campus_name":"Main Campus","total_offenses":9,"size":3473}},{"type":"Feature","geometry":{"type":"Point","coordinates":[-77.8599084,40.7982133]},"properties":{"school_name":"Pennsylvania State University-Main Campus","campus_name":"University Park Campus","total_offenses":63,"size":45783}},{"type":"Feature","geometry":{"type":"Point","coordinates":[-75.1660025,39.9528505]},"properties":{"school_name":"Philadelphia University","campus_name":"Main Campus","total_offenses":3,"size":3540}},{"type":"Feature","geometry":{"type":"Point","coordinates":[-80.188597,40.423804]},"properties":{"school_name":"Pittsburgh Technical Institute","campus_name":"Main Campus","total_offenses":1,"size":1791}},{"type":"Feature","geometry":{"type":"Point","coordinates":[-71.6882542,43.7595034]},"properties":{"school_name":"Plymouth State University","campus_name":"Main Campus","total_offenses":3,"size":5431}},{"type":"Feature","geometry":{"type":"Point","coordinates":[-105.266755220729,40.00741815]},"properties":{"school_name":"Post University","campus_name":"Main Campus","total_offenses":1,"size":7317}},{"type":"Feature","geometry":{"type":"Point","coordinates":[-86.92119459999999,40.4237054]},"properties":{"school_name":"Purdue University-Main Campus","campus_name":"Main Campus","total_offenses":3,"size":40393}},{"type":"Feature","geometry":{"type":"Point","coordinates":[-73.6753324208005,42.7285573]},"properties":{"school_name":"Rensselaer Polytechnic Institute","campus_name":"Rensselaer Polytechnic Institute","total_offenses":3,"size":6658}},{"type":"Feature","geometry":{"type":"Point","coordinates":[-87.6252121,41.8760588]},"properties":{"school_name":"Roosevelt University","campus_name":"Chicago Campus","total_offenses":8,"size":6343}},{"type":"Feature","geometry":{"type":"Point","coordinates":[-87.669568,41.8734157]},"properties":{"school_name":"Rush University","campus_name":"Main Campus","total_offenses":3,"size":2172}},{"type":"Feature","geometry":{"type":"Point","coordinates":[-74.44739910000001,40.5008186]},"properties":{"school_name":"Rutgers University-New Brunswick","campus_name":"Main Campus","total_offenses":19,"size":40434}},{"type":"Feature","geometry":{"type":"Point","coordinates":[-71.5072307,42.9874723]},"properties":{"school_name":"Saint Anselm College","campus_name":"Main Campus","total_offenses":3,"size":1954}},{"type":"Feature","geometry":{"type":"Point","coordinates":[-94.15109299999999,45.552525]},"properties":{"school_name":"Saint Cloud State University","campus_name":"Main Campus","total_offenses":12,"size":16922}},{"type":"Feature","geometry":{"type":"Point","coordinates":[-117.0718893,32.77572170000001]},"properties":{"school_name":"San Diego State University","campus_name":"Main Campus","total_offenses":21,"size":30843}},{"type":"Feature","geometry":{"type":"Point","coordinates":[-121.88130228815,37.3352583]},"properties":{"school_name":"San Jose State University","campus_name":"Main Campus","total_offenses":5,"size":30448}},{"type":"Feature","geometry":{"type":"Point","coordinates":[-117.710379,34.10421179999999]},"properties":{"school_name":"Scripps College","campus_name":"Main Campus","total_offenses":4,"size":962}},{"type":"Feature","geometry":{"type":"Point","coordinates":[-122.2181881,40.1574026]},"properties":{"school_name":"Shasta College","campus_name":"Shasta College - Tehama Campus","total_offenses":1,"size":8471}},{"type":"Feature","geometry":{"type":"Point","coordinates":[-72.6372697,42.3180301]},"properties":{"school_name":"Smith College","campus_name":"Main Campus","total_offenses":4,"size":3212}},{"type":"Feature","geometry":{"type":"Point","coordinates":[-116.995969,32.641391]},"properties":{"school_name":"Southwestern College","campus_name":"SOUTHWESTERN COLLEGE","total_offenses":2,"size":18362}},{"type":"Feature","geometry":{"type":"Point","coordinates":[-84.5549522,42.2064519]},"properties":{"school_name":"Spring Arbor University","campus_name":"Main Campus","total_offenses":2,"size":4125}},{"type":"Feature","geometry":{"type":"Point","coordinates":[-78.4845212,42.07990220000001]},"properties":{"school_name":"St Bonaventure University","campus_name":"Main Campus","total_offenses":2,"size":2329}},{"type":"Feature","geometry":{"type":"Point","coordinates":[-77.7946533,42.2552377]},"properties":{"school_name":"SUNY College of Technology at Alfred","campus_name":"Alfred State College - Alfred Campus","total_offenses":3,"size":3528}},{"type":"Feature","geometry":{"type":"Point","coordinates":[-76.1400680119713,43.04295775]},"properties":{"school_name":"Syracuse University","campus_name":"Main Campus","total_offenses":8,"size":21029}},{"type":"Feature","geometry":{"type":"Point","coordinates":[-96.352044654213,30.61179915]},"properties":{"school_name":"Texas A & M University-College Station","campus_name":"Texas A&M University","total_offenses":7,"size":50627}},{"type":"Feature","geometry":{"type":"Point","coordinates":[-84.3553416,33.9360524]},"properties":{"school_name":"The Art Institute of Atlanta","campus_name":"The Art Institute of Atlanta","total_offenses":2,"size":3367}},{"type":"Feature","geometry":{"type":"Point","coordinates":[-81.9336187,40.8110501]},"properties":{"school_name":"The College of Wooster","campus_name":"Main Campus","total_offenses":4,"size":2080}},{"type":"Feature","geometry":{"type":"Point","coordinates":[-113.9852081,46.8600672]},"properties":{"school_name":"The University of Montana","campus_name":"Mountain Campus","total_offenses":8,"size":14946}},{"type":"Feature","geometry":{"type":"Point","coordinates":[-85.3002353,35.0461851]},"properties":{"school_name":"The University of Tennessee-Chattanooga","campus_name":"The University of Tennessee- Chattanooga","total_offenses":2,"size":11660}},{"type":"Feature","geometry":{"type":"Point","coordinates":[-97.7340567,30.2849185]},"properties":{"school_name":"The University of Texas at Austin","campus_name":"The University of Texas at Austin","total_offenses":18,"size":52186}},{"type":"Feature","geometry":{"type":"Point","coordinates":[-98.50209615,29.42369985]},"properties":{"school_name":"The University of Texas at San Antonio","campus_name":"Main Campus","total_offenses":4,"size":30474}},{"type":"Feature","geometry":{"type":"Point","coordinates":[-72.690375,41.74707799999999]},"properties":{"school_name":"Trinity College","campus_name":"Main Campus Trinity College","total_offenses":8,"size":2371}},{"type":"Feature","geometry":{"type":"Point","coordinates":[-85.7038439,32.430471]},"properties":{"school_name":"Tuskegee University","campus_name":"TUSKEGEE UNIVERSITY","total_offenses":6,"size":3117}},{"type":"Feature","geometry":{"type":"Point","coordinates":[-84.2769719,39.8138492]},"properties":{"school_name":"United Theological Seminary","campus_name":"Main Campus","total_offenses":2,"size":576}},{"type":"Feature","geometry":{"type":"Point","coordinates":[-110.9501094,32.2318851]},"properties":{"school_name":"University of Arizona","campus_name":"Main Campus","total_offenses":19,"size":40223}},{"type":"Feature","geometry":{"type":"Point","coordinates":[-94.17365509999999,36.0678324]},"properties":{"school_name":"University of Arkansas","campus_name":"Main Campus","total_offenses":5,"size":24537}},{"type":"Feature","geometry":{"type":"Point","coordinates":[-122.2585399,37.8718992]},"properties":{"school_name":"University of California-Berkeley","campus_name":"Main Campus","total_offenses":24,"size":35893}},{"type":"Feature","geometry":{"type":"Point","coordinates":[-121.7617125,38.5382322]},"properties":{"school_name":"University of California-Davis","campus_name":"Main Campus","total_offenses":16,"size":32354}},{"type":"Feature","geometry":{"type":"Point","coordinates":[-118.446731866638,34.07088865]},"properties":{"school_name":"University of California-Los Angeles","campus_name":"UCLA","total_offenses":22,"size":39945}},{"type":"Feature","geometry":{"type":"Point","coordinates":[-122.4574487,37.7629651]},"properties":{"school_name":"University of California-San Francisco","campus_name":"Main Campus - Parnassus","total_offenses":13,"size":3137}},{"type":"Feature","geometry":{"type":"Point","coordinates":[-81.2000599,28.6024274]},"properties":{"school_name":"University of Central Florida","campus_name":"Main Campus","total_offenses":13,"size":59601}},{"type":"Feature","geometry":{"type":"Point","coordinates":[-87.5987133,41.78860789999999]},"properties":{"school_name":"University of Chicago","campus_name":"Main Campus","total_offenses":8,"size":15245}},{"type":"Feature","geometry":{"type":"Point","coordinates":[-84.51495039999999,39.1329219]},"properties":{"school_name":"University of Cincinnati-Main Campus","campus_name":"Main Campus","total_offenses":15,"size":33347}},{"type":"Feature","geometry":{"type":"Point","coordinates":[-104.7994959,38.89224369999999]},"properties":{"school_name":"University of Colorado Colorado Springs","campus_name":"University of Colorado Colorado Springs","total_offenses":1,"size":10612}},{"type":"Feature","geometry":{"type":"Point","coordinates":[-104.9995927,39.7466672]},"properties":{"school_name":"University of Colorado Denver","campus_name":"University of Colorado Denver - Downtown","total_offenses":6,"size":22396}},{"type":"Feature","geometry":{"type":"Point","coordinates":[-75.7506114,39.6779504]},"properties":{"school_name":"University of Delaware","campus_name":"Main Campus","total_offenses":4,"size":21856}},{"type":"Feature","geometry":{"type":"Point","coordinates":[-82.3490166909472,29.6328784]},"properties":{"school_name":"University of Florida","campus_name":"University of Florida","total_offenses":14,"size":49913}},{"type":"Feature","geometry":{"type":"Point","coordinates":[-157.817148859892,21.29875455]},"properties":{"school_name":"University of Hawaii at Manoa","campus_name":"University of Hawaii at Manoa","total_offenses":15,"size":20426}},{"type":"Feature","geometry":{"type":"Point","coordinates":[-88.2271615,40.10195230000001]},"properties":{"school_name":"University of Illinois at Urbana-Champaign","campus_name":"Main Campus","total_offenses":12,"size":44520}},{"type":"Feature","geometry":{"type":"Point","coordinates":[-91.5548998,41.6626963]},"properties":{"school_name":"University of Iowa","campus_name":"Main Campus","total_offenses":20,"size":30129}},{"type":"Feature","geometry":{"type":"Point","coordinates":[-95.2557961,38.95434389999999]},"properties":{"school_name":"University of Kansas","campus_name":"Main Campus (Lawrence)","total_offenses":5,"size":27135}},{"type":"Feature","geometry":{"type":"Point","coordinates":[-76.9425543,38.9869183]},"properties":{"school_name":"University of Maryland-College Park","campus_name":"Main Campus","total_offenses":10,"size":37248}},{"type":"Feature","geometry":{"type":"Point","coordinates":[-83.7382241,42.2780436]},"properties":{"school_name":"University of Michigan-Ann Arbor","campus_name":"Ann Arbor campus","total_offenses":45,"size":43426}},{"type":"Feature","geometry":{"type":"Point","coordinates":[-93.2277285,44.97399]},"properties":{"school_name":"University of Minnesota-Twin Cities","campus_name":"Main Campus","total_offenses":22,"size":51853}},{"type":"Feature","geometry":{"type":"Point","coordinates":[-93.2277285,44.97399]},"properties":{"school_name":"University of Minnesota-Twin Cities","campus_name":"Saint Paul","total_offenses":1,"size":51853}},{"type":"Feature","geometry":{"type":"Point","coordinates":[-92.32773750000001,38.94038079999999]},"properties":{"school_name":"University of Missouri-Columbia","campus_name":"Main Campus","total_offenses":8,"size":34704}},{"type":"Feature","geometry":{"type":"Point","coordinates":[-96.7016829,40.8177792]},"properties":{"school_name":"University of Nebraska-Lincoln","campus_name":"Main Campus","total_offenses":4,"size":24207}},{"type":"Feature","geometry":{"type":"Point","coordinates":[-115.141831761085,36.1071554]},"properties":{"school_name":"University of Nevada-Las Vegas","campus_name":"University of Nevada-Las Vegas","total_offenses":1,"size":27389}},{"type":"Feature","geometry":{"type":"Point","coordinates":[-87.68000190000001,34.80736409999999]},"properties":{"school_name":"University of North Alabama","campus_name":"Main Campus","total_offenses":3,"size":7032}},{"type":"Feature","geometry":{"type":"Point","coordinates":[-78.9662056,35.9548107]},"properties":{"school_name":"University of North Carolina at Chapel Hill","campus_name":"The University of North Carolina at Chapel Hill","total_offenses":23,"size":29278}},{"type":"Feature","geometry":{"type":"Point","coordinates":[-97.0768014,47.922891]},"properties":{"school_name":"University of North Dakota","campus_name":"Main Campus","total_offenses":9,"size":15250}},{"type":"Feature","geometry":{"type":"Point","coordinates":[-92.4634686,42.51377040000001]},"properties":{"school_name":"University of Northern Iowa","campus_name":"Main Campus","total_offenses":6,"size":12273}},{"type":"Feature","geometry":{"type":"Point","coordinates":[-97.4457137,35.2058936]},"properties":{"school_name":"University of Oklahoma-Norman Campus","campus_name":"Norman Campus","total_offenses":10,"size":27507}},{"type":"Feature","geometry":{"type":"Point","coordinates":[-123.0726055,44.0448302]},"properties":{"school_name":"University of Oregon","campus_name":"Main Campus","total_offenses":30,"size":24518}},{"type":"Feature","geometry":{"type":"Point","coordinates":[-79.960835,40.4443533]},"properties":{"school_name":"University of Pittsburgh-Pittsburgh Campus","campus_name":"Main Campus","total_offenses":10,"size":28769}},{"type":"Feature","geometry":{"type":"Point","coordinates":[-71.5263327,41.4871363]},"properties":{"school_name":"University of Rhode Island","campus_name":"Main Campus","total_offenses":12,"size":16451}},{"type":"Feature","geometry":{"type":"Point","coordinates":[-70.448804,43.6825395]},"properties":{"school_name":"University of Southern Maine","campus_name":"Gorham Campus","total_offenses":17,"size":9382}},{"type":"Feature","geometry":{"type":"Point","coordinates":[-96.8400459,32.812123]},"properties":{"school_name":"University of Texas Southwestern Medical Center","campus_name":"Main Campus","total_offenses":7,"size":2424}},{"type":"Feature","geometry":{"type":"Point","coordinates":[-78.5079772,38.0335529]},"properties":{"school_name":"University of Virginia-Main Campus","campus_name":"Main Campus","total_offenses":18,"size":23907}},{"type":"Feature","geometry":{"type":"Point","coordinates":[-122.3035199,47.65533509999999]},"properties":{"school_name":"University of Washington-Seattle Campus","campus_name":"Main Campus","total_offenses":14,"size":43485}},{"type":"Feature","geometry":{"type":"Point","coordinates":[-89.4124875,43.07659200000001]},"properties":{"school_name":"University of Wisconsin-Madison","campus_name":"Main Campus","total_offenses":23,"size":42269}},{"type":"Feature","geometry":{"type":"Point","coordinates":[-92.6192881103898,44.8481376]},"properties":{"school_name":"University of Wisconsin-River Falls","campus_name":"University of Wisconsin River Falls","total_offenses":3,"size":6443}},{"type":"Feature","geometry":{"type":"Point","coordinates":[-87.0446488011438,41.4629448]},"properties":{"school_name":"Valparaiso University","campus_name":"VALPARAISO UNIVERSITY","total_offenses":2,"size":4078}},{"type":"Feature","geometry":{"type":"Point","coordinates":[-117.1544219,46.7319374]},"properties":{"school_name":"Washington State University","campus_name":"Main Campus","total_offenses":10,"size":27679}},{"type":"Feature","geometry":{"type":"Point","coordinates":[-90.31079620000001,38.6487895]},"properties":{"school_name":"Washington University in St Louis","campus_name":"Danforth Campus","total_offenses":10,"size":13952}},{"type":"Feature","geometry":{"type":"Point","coordinates":[-83.06654619999999,42.3591388]},"properties":{"school_name":"Wayne State University","campus_name":"Main Campus","total_offenses":3,"size":28938}},{"type":"Feature","geometry":{"type":"Point","coordinates":[-85.6404943740467,42.25558295]},"properties":{"school_name":"Western Michigan University","campus_name":"Main Campus","total_offenses":12,"size":24598}},{"type":"Feature","geometry":{"type":"Point","coordinates":[-119.660274296004,34.4496048]},"properties":{"school_name":"Westmont College","campus_name":"Westmont College","total_offenses":2,"size":1353}},{"type":"Feature","geometry":{"type":"Point","coordinates":[-118.3288534,46.0706922]},"properties":{"school_name":"Whitman College","campus_name":"Whitman College","total_offenses":4,"size":1539}},{"type":"Feature","geometry":{"type":"Point","coordinates":[-71.8083142,42.2742863]},"properties":{"school_name":"Worcester Polytechnic Institute","campus_name":"Main Campus","total_offenses":5,"size":5957}},{"type":"Feature","geometry":{"type":"Point","coordinates":[-84.0635798,39.7814843]},"properties":{"school_name":"Wright State University-Main Campus","campus_name":"Dayton (Main) Campus","total_offenses":13,"size":16780}},{"type":"Feature","geometry":{"type":"Point","coordinates":[-73.650627,40.722071]},"properties":{"school_name":"Adelphi University","campus_name":"Main Campus","total_offenses":2,"size":7859}},{"type":"Feature","geometry":{"type":"Point","coordinates":[-84.05917389999999,41.8985832]},"properties":{"school_name":"Adrian College","campus_name":"Main Campus","total_offenses":2,"size":1807}},{"type":"Feature","geometry":{"type":"Point","coordinates":[-86.5734994,34.78426939999999]},"properties":{"school_name":"Alabama A & M University","campus_name":"Main Campus","total_offenses":2,"size":4853}},{"type":"Feature","geometry":{"type":"Point","coordinates":[-84.7451882,42.2439985]},"properties":{"school_name":"Albion College","campus_name":"Main Campus","total_offenses":3,"size":1382}},{"type":"Feature","geometry":{"type":"Point","coordinates":[-75.9096508,40.3609263]},"properties":{"school_name":"Albright College","campus_name":"ALBRIGHT COLLEGE","total_offenses":1,"size":2264}},{"type":"Feature","geometry":{"type":"Point","coordinates":[-75.9354668,40.30909579999999]},"properties":{"school_name":"Alvernia University","campus_name":"Main Campus","total_offenses":3,"size":2891}},{"type":"Feature","geometry":{"type":"Point","coordinates":[-121.348804,38.65099]},"properties":{"school_name":"American River College","campus_name":"Main Campus","total_offenses":2,"size":31088}},{"type":"Feature","geometry":{"type":"Point","coordinates":[-77.0809257674905,38.9456237]},"properties":{"school_name":"American University","campus_name":"Main Campus","total_offenses":16,"size":12904}},{"type":"Feature","geometry":{"type":"Point","coordinates":[-72.5170028,42.3709104]},"properties":{"school_name":"Amherst College","campus_name":"Main Campus","total_offenses":17,"size":1817}},{"type":"Feature","geometry":{"type":"Point","coordinates":[-100.4665211,31.4423256]},"properties":{"school_name":"Angelo State University","campus_name":"Main Campus","total_offenses":2,"size":6888}},{"type":"Feature","geometry":{"type":"Point","coordinates":[-76.5128835389789,39.04934705]},"properties":{"school_name":"Anne Arundel Community College","campus_name":"Anne Arundel Community College","total_offenses":1,"size":17650}},{"type":"Feature","geometry":{"type":"Point","coordinates":[-85.62875559999999,42.9601469]},"properties":{"school_name":"Aquinas College","campus_name":"Main Campus","total_offenses":2,"size":2093}},{"type":"Feature","geometry":{"type":"Point","coordinates":[-111.679773,33.307168]},"properties":{"school_name":"Arizona State University-Tempe","campus_name":"Polytechnic Campus","total_offenses":1,"size":73378}},{"type":"Feature","geometry":{"type":"Point","coordinates":[-114.495134,32.68959199999999]},"properties":{"school_name":"Arizona Western College","campus_name":"Main Campus","total_offenses":1,"size":7877}},{"type":"Feature","geometry":{"type":"Point","coordinates":[-92.290706,34.7350921]},"properties":{"school_name":"Arkansas Baptist College","campus_name":"Arkansas Baptist College","total_offenses":1,"size":1082}},{"type":"Feature","geometry":{"type":"Point","coordinates":[-90.6770298,35.84281519999999]},"properties":{"school_name":"Arkansas State University-Main Campus","campus_name":"Arkansas State University-Jonesboro","total_offenses":1,"size":13877}},{"type":"Feature","geometry":{"type":"Point","coordinates":[-93.13865709999999,35.2950751]},"properties":{"school_name":"Arkansas Tech University","campus_name":"Main Campus","total_offenses":2,"size":10950}},{"type":"Feature","geometry":{"type":"Point","coordinates":[-90.21127779999999,41.8701265]},"properties":{"school_name":"Ashford University","campus_name":"Iowa Campus","total_offenses":1,"size":77734}},{"type":"Feature","geometry":{"type":"Point","coordinates":[-122.696901969014,42.1867143]},"properties":{"school_name":"Ashland University","campus_name":"Ashland University","total_offenses":1,"size":5954}},{"type":"Feature","geometry":{"type":"Point","coordinates":[-85.4951663,32.59335739999999]},"properties":{"school_name":"Auburn University","campus_name":"Main Campus","total_offenses":9,"size":25134}},{"type":"Feature","geometry":{"type":"Point","coordinates":[-93.241518,44.9663695]},"properties":{"school_name":"Augsburg College","campus_name":"Main Campus","total_offenses":2,"size":3645}},{"type":"Feature","geometry":{"type":"Point","coordinates":[-90.55070979999999,41.5051053]},"properties":{"school_name":"Augustana College","campus_name":"Main Campus","total_offenses":4,"size":2551}},{"type":"Feature","geometry":{"type":"Point","coordinates":[-88.350044,41.754433]},"properties":{"school_name":"Aurora University","campus_name":"Main Campus","total_offenses":1,"size":4681}},{"type":"Feature","geometry":{"type":"Point","coordinates":[-87.3540972,36.5379773]},"properties":{"school_name":"Austin Peay State University","campus_name":"Main Campus","total_offenses":2,"size":10597}},{"type":"Feature","geometry":{"type":"Point","coordinates":[-81.4427777,26.3363889]},"properties":{"school_name":"Ave Maria University","campus_name":"Ave Maria University","total_offenses":1,"size":976}},{"type":"Feature","geometry":{"type":"Point","coordinates":[-117.8883593,34.1300755]},"properties":{"school_name":"Azusa Pacific University","campus_name":"Azusa (main campus)","total_offenses":4,"size":10184}},{"type":"Feature","geometry":{"type":"Point","coordinates":[-71.2659951,42.2993708]},"properties":{"school_name":"Babson College","campus_name":"Main Campus","total_offenses":1,"size":3250}},{"type":"Feature","geometry":{"type":"Point","coordinates":[-84.1723717,42.9851395]},"properties":{"school_name":"Baker College of Owosso","campus_name":"BAKER COLLEGE OF OWOSSO","total_offenses":3,"size":2972}},{"type":"Feature","geometry":{"type":"Point","coordinates":[-81.84839099999999,41.3735087]},"properties":{"school_name":"Baldwin Wallace University","campus_name":"Main Campus","total_offenses":3,"size":4169}},{"type":"Feature","geometry":{"type":"Point","coordinates":[-73.91005439999999,42.0203897]},"properties":{"school_name":"Bard College","campus_name":"Main Campus","total_offenses":12,"size":2342}},{"type":"Feature","geometry":{"type":"Point","coordinates":[-73.378238,42.20797599999999]},"properties":{"school_name":"Bard College at Simon's Rock","campus_name":"Main Campus","total_offenses":1,"size":354}},{"type":"Feature","geometry":{"type":"Point","coordinates":[-77.9162702,35.7351078]},"properties":{"school_name":"Barton College","campus_name":"Main Campus","total_offenses":1,"size":1126}},{"type":"Feature","geometry":{"type":"Point","coordinates":[-122.466319486908,47.1882071]},"properties":{"school_name":"Bates College","campus_name":"Main Campus","total_offenses":8,"size":1753}},{"type":"Feature","geometry":{"type":"Point","coordinates":[-97.1143146,31.549841]},"properties":{"school_name":"Baylor University","campus_name":"Main Campus","total_offenses":2,"size":15364}},{"type":"Feature","geometry":{"type":"Point","coordinates":[-85.70486,38.219141]},"properties":{"school_name":"Bellarmine University","campus_name":"Main Campus","total_offenses":1,"size":3602}},{"type":"Feature","geometry":{"type":"Point","coordinates":[-89.0158342476219,42.5009292]},"properties":{"school_name":"Beloit College","campus_name":"Beloit College","total_offenses":4,"size":1330}},{"type":"Feature","geometry":{"type":"Point","coordinates":[-94.8740787600765,47.48502365]},"properties":{"school_name":"Bemidji State University","campus_name":"Bemidji State University","total_offenses":3,"size":5027}},{"type":"Feature","geometry":{"type":"Point","coordinates":[-73.241558,42.92389]},"properties":{"school_name":"Bennington College","campus_name":"Main Campus","total_offenses":3,"size":826}},{"type":"Feature","geometry":{"type":"Point","coordinates":[-71.2220679568894,42.3858974]},"properties":{"school_name":"Bentley University","campus_name":"Bentley University","total_offenses":1,"size":5647}},{"type":"Feature","geometry":{"type":"Point","coordinates":[-84.2898841,37.5722323]},"properties":{"school_name":"Berea College","campus_name":"Main Campus","total_offenses":3,"size":1658}},{"type":"Feature","geometry":{"type":"Point","coordinates":[-85.2369284208692,34.32561245]},"properties":{"school_name":"Berry College","campus_name":"Main Campus","total_offenses":4,"size":2166}},{"type":"Feature","geometry":{"type":"Point","coordinates":[-93.1639776626009,45.0598639]},"properties":{"school_name":"Bethel University","campus_name":"Bethel University","total_offenses":1,"size":6279}},{"type":"Feature","geometry":{"type":"Point","coordinates":[-86.8508242,33.513439]},"properties":{"school_name":"Birmingham Southern College","campus_name":"Birmingham-Southern College","total_offenses":2,"size":1231}},{"type":"Feature","geometry":{"type":"Point","coordinates":[-71.6162645,42.1632345]},"properties":{"school_name":"Blackstone Valley Vocational Regional School District","campus_name":"Blackstone Valley Regional Technical High School","total_offenses":1,"size":30}},{"type":"Feature","geometry":{"type":"Point","coordinates":[-96.4063204,30.1605857]},"properties":{"school_name":"Blinn College","campus_name":"Main Campus","total_offenses":2,"size":17839}},{"type":"Feature","geometry":{"type":"Point","coordinates":[-76.4472749,41.0081119]},"properties":{"school_name":"Bloomsburg University of Pennsylvania","campus_name":"Main Campus","total_offenses":4,"size":9950}},{"type":"Feature","geometry":{"type":"Point","coordinates":[-83.897922,40.8968149]},"properties":{"school_name":"Bluffton University","campus_name":"Main Campus","total_offenses":3,"size":1198}},{"type":"Feature","geometry":{"type":"Point","coordinates":[-116.1996274,43.6025572]},"properties":{"school_name":"Boise State University","campus_name":"Main Campus","total_offenses":4,"size":22344}},{"type":"Feature","geometry":{"type":"Point","coordinates":[-71.1619761802168,42.34315285]},"properties":{"school_name":"Boston College","campus_name":"Main Campus","total_offenses":5,"size":14605}},{"type":"Feature","geometry":{"type":"Point","coordinates":[-71.1053991,42.3504997]},"properties":{"school_name":"Boston University","campus_name":"Boston University Charles River Campus","total_offenses":10,"size":32603}},{"type":"Feature","geometry":{"type":"Point","coordinates":[-69.9629558,43.9067561]},"properties":{"school_name":"Bowdoin College","campus_name":"Main Campus","total_offenses":4,"size":1839}},{"type":"Feature","geometry":{"type":"Point","coordinates":[-76.7568137,39.0195734]},"properties":{"school_name":"Bowie State University","campus_name":"Main Campus","total_offenses":4,"size":5421}},{"type":"Feature","geometry":{"type":"Point","coordinates":[-83.6300826,41.3797788]},"properties":{"school_name":"Bowling Green State University-Main Campus","campus_name":"Main Campus","total_offenses":11,"size":17286}},{"type":"Feature","geometry":{"type":"Point","coordinates":[-89.61601809999999,40.6981432]},"properties":{"school_name":"Bradley University","campus_name":"Main Campus","total_offenses":6,"size":5458}},{"type":"Feature","geometry":{"type":"Point","coordinates":[-71.25854799999999,42.3662392]},"properties":{"school_name":"Brandeis University","campus_name":"Main Campus","total_offenses":2,"size":5808}},{"type":"Feature","geometry":{"type":"Point","coordinates":[-78.9670039,38.37892349999999]},"properties":{"school_name":"Bridgewater College","campus_name":"Main Campus","total_offenses":1,"size":1759}},{"type":"Feature","geometry":{"type":"Point","coordinates":[-70.9651026,41.9872027]},"properties":{"school_name":"Bridgewater State University","campus_name":"Main Campus","total_offenses":1,"size":11417}},{"type":"Feature","geometry":{"type":"Point","coordinates":[-111.6493156,40.2518435]},"properties":{"school_name":"Brigham Young University-Provo","campus_name":"Brigham Young University (230038)","total_offenses":16,"size":34409}},{"type":"Feature","geometry":{"type":"Point","coordinates":[-97.3596812,32.7101343]},"properties":{"school_name":"Brite Divinity School","campus_name":"Brite Divinity School","total_offenses":11,"size":211}},{"type":"Feature","geometry":{"type":"Point","coordinates":[-71.4025482,41.82677179999999]},"properties":{"school_name":"Brown University","campus_name":"Main Campus","total_offenses":17,"size":8885}},{"type":"Feature","geometry":{"type":"Point","coordinates":[-71.5382698,41.9210684]},"properties":{"school_name":"Bryant University","campus_name":"Main Campus","total_offenses":7,"size":3418}},{"type":"Feature","geometry":{"type":"Point","coordinates":[-75.31439019999999,40.0266576]},"properties":{"school_name":"Bryn Mawr College","campus_name":"Main Campus","total_offenses":5,"size":1765}},{"type":"Feature","geometry":{"type":"Point","coordinates":[-76.88496289999999,40.9551414]},"properties":{"school_name":"Bucknell University","campus_name":"Bucknell University- Main Campus","total_offenses":9,"size":3618}},{"type":"Feature","geometry":{"type":"Point","coordinates":[-95.21007,42.64072219999999]},"properties":{"school_name":"Buena Vista University","campus_name":"Main Campus and GPS sites","total_offenses":3,"size":2416}},{"type":"Feature","geometry":{"type":"Point","coordinates":[-75.37489049999999,40.05456400000001]},"properties":{"school_name":"Cabrini College","campus_name":"Main Campus","total_offenses":3,"size":2828}},{"type":"Feature","geometry":{"type":"Point","coordinates":[-117.4255596,33.9284067]},"properties":{"school_name":"California Baptist University","campus_name":"Main Campus","total_offenses":1,"size":6031}},{"type":"Feature","geometry":{"type":"Point","coordinates":[-118.125269,34.1376576]},"properties":{"school_name":"California Institute of Technology","campus_name":"Main Campus","total_offenses":1,"size":2243}},{"type":"Feature","geometry":{"type":"Point","coordinates":[-117.8215295,34.0565284]},"properties":{"school_name":"California State Polytechnic University-Pomona","campus_name":"Main Campus","total_offenses":1,"size":22156}},{"type":"Feature","geometry":{"type":"Point","coordinates":[-119.7462505,36.8120121]},"properties":{"school_name":"California State University-Fresno","campus_name":"Main Campus","total_offenses":5,"size":22565}},{"type":"Feature","geometry":{"type":"Point","coordinates":[-118.169655,34.064291]},"properties":{"school_name":"California State University-Los Angeles","campus_name":"California State University- Los Angeles","total_offenses":1,"size":21755}},{"type":"Feature","geometry":{"type":"Point","coordinates":[-121.80176,36.65444970000001]},"properties":{"school_name":"California State University-Monterey Bay","campus_name":"California State University- Monterey Bay","total_offenses":4,"size":5609}},{"type":"Feature","geometry":{"type":"Point","coordinates":[-118.5293247,34.2389212]},"properties":{"school_name":"California State University-Northridge","campus_name":"California State University- Northridge","total_offenses":7,"size":36164}},{"type":"Feature","geometry":{"type":"Point","coordinates":[-117.321886392209,34.1825988]},"properties":{"school_name":"California State University-San Bernardino","campus_name":"California State University- San Bernardino","total_offenses":4,"size":18234}},{"type":"Feature","geometry":{"type":"Point","coordinates":[-117.1596842,33.1298708]},"properties":{"school_name":"California State University-San Marcos","campus_name":"Main Campus","total_offenses":1,"size":10610}},{"type":"Feature","geometry":{"type":"Point","coordinates":[-120.8568887,37.52457130000001]},"properties":{"school_name":"California State University-Stanislaus","campus_name":"CSU Stanislaus - Turlock","total_offenses":1,"size":8882}},{"type":"Feature","geometry":{"type":"Point","coordinates":[-79.887603,40.06587]},"properties":{"school_name":"California University of Pennsylvania","campus_name":"Main Campus","total_offenses":2,"size":8608}},{"type":"Feature","geometry":{"type":"Point","coordinates":[-94.6340549,35.0393248]},"properties":{"school_name":"Carl Albert State College","campus_name":"Carl Albert State College","total_offenses":1,"size":2613}},{"type":"Feature","geometry":{"type":"Point","coordinates":[-93.1414579590152,44.47183535]},"properties":{"school_name":"Carleton College","campus_name":"Carleton College","total_offenses":8,"size":2055}},{"type":"Feature","geometry":{"type":"Point","coordinates":[-79.9633588,40.4381597]},"properties":{"school_name":"Carlow University","campus_name":"Main Campus","total_offenses":1,"size":2922}},{"type":"Feature","geometry":{"type":"Point","coordinates":[-87.8199047,42.62351879999999]},"properties":{"school_name":"Carthage College","campus_name":"Main Campus","total_offenses":6,"size":3029}},{"type":"Feature","geometry":{"type":"Point","coordinates":[-80.4831148,35.6915283]},"properties":{"school_name":"Catawba College","campus_name":"Catawba College","total_offenses":6,"size":1337}},{"type":"Feature","geometry":{"type":"Point","coordinates":[-77.0002281900675,38.93890905]},"properties":{"school_name":"Catholic University of America","campus_name":"The Catholic University of America","total_offenses":4,"size":6838}},{"type":"Feature","geometry":{"type":"Point","coordinates":[-75.8581705889796,42.9292965]},"properties":{"school_name":"Cazenovia College","campus_name":"Main Campus","total_offenses":5,"size":990}},{"type":"Feature","geometry":{"type":"Point","coordinates":[-74.8332674,40.848445]},"properties":{"school_name":"Centenary College","campus_name":"Hackettstown","total_offenses":4,"size":2576}},{"type":"Feature","geometry":{"type":"Point","coordinates":[-72.76654959999999,41.6906682]},"properties":{"school_name":"Central Connecticut State University","campus_name":"Main Campus","total_offenses":2,"size":12091}},{"type":"Feature","geometry":{"type":"Point","coordinates":[-84.7751928,43.5912126]},"properties":{"school_name":"Central Michigan University","campus_name":"Main Campus","total_offenses":7,"size":27626}},{"type":"Feature","geometry":{"type":"Point","coordinates":[-82.447965,40.06793]},"properties":{"school_name":"Central Ohio Technical College","campus_name":"Central Ohio Technical College","total_offenses":1,"size":3746}},{"type":"Feature","geometry":{"type":"Point","coordinates":[-121.3485532,44.07136029999999]},"properties":{"school_name":"Central Oregon Community College","campus_name":"Main Campus - Bend","total_offenses":1,"size":7132}},{"type":"Feature","geometry":{"type":"Point","coordinates":[-122.3267661,47.817045]},"properties":{"school_name":"Central Washington University","campus_name":"Central Washington University","total_offenses":6,"size":11268}},{"type":"Feature","geometry":{"type":"Point","coordinates":[-102.998688760643,42.81877875]},"properties":{"school_name":"Chadron State College","campus_name":"Chadron State College","total_offenses":1,"size":2994}},{"type":"Feature","geometry":{"type":"Point","coordinates":[-111.6738817,33.31101280000001]},"properties":{"school_name":"Chandler-Gilbert Community College","campus_name":"CGCC/Williams Campus","total_offenses":1,"size":14653}},{"type":"Feature","geometry":{"type":"Point","coordinates":[-117.8512582,33.7924581]},"properties":{"school_name":"Chapman University","campus_name":"Main Campus","total_offenses":2,"size":7570}},{"type":"Feature","geometry":{"type":"Point","coordinates":[-75.52856609999999,39.93387240000001]},"properties":{"school_name":"Cheyney University of Pennsylvania","campus_name":"Main Campus","total_offenses":1,"size":1284}},{"type":"Feature","geometry":{"type":"Point","coordinates":[-76.4938087,37.0638735]},"properties":{"school_name":"Christopher Newport University","campus_name":"Main Campus","total_offenses":1,"size":5186}},{"type":"Feature","geometry":{"type":"Point","coordinates":[-79.9606739,32.797075]},"properties":{"school_name":"Citadel Military College of South Carolina","campus_name":"The Citadel","total_offenses":8,"size":3499}},{"type":"Feature","geometry":{"type":"Point","coordinates":[-122.451380026325,37.72594135]},"properties":{"school_name":"City College of San Francisco","campus_name":"Ocean Campus","total_offenses":1,"size":30106}},{"type":"Feature","geometry":{"type":"Point","coordinates":[-87.6745677,41.877342]},"properties":{"school_name":"City Colleges of Chicago-Malcolm X College","campus_name":"Main Campus","total_offenses":3,"size":6523}},{"type":"Feature","geometry":{"type":"Point","coordinates":[-117.7075909,34.10165529999999]},"properties":{"school_name":"Claremont McKenna College","campus_name":"Main Campus","total_offenses":4,"size":1295}},{"type":"Feature","geometry":{"type":"Point","coordinates":[-85.7406178,38.2846016]},"properties":{"school_name":"Clark University","campus_name":"Main Campus","total_offenses":2,"size":3503}},{"type":"Feature","geometry":{"type":"Point","coordinates":[-84.3288058,33.5946095]},"properties":{"school_name":"Clayton  State University","campus_name":"Clayton State University","total_offenses":3,"size":7140}},{"type":"Feature","geometry":{"type":"Point","coordinates":[-81.6751669486689,41.50214445]},"properties":{"school_name":"Cleveland State University","campus_name":"Cleveland State University","total_offenses":8,"size":17278}},{"type":"Feature","geometry":{"type":"Point","coordinates":[-73.4395785,44.6483776]},"properties":{"school_name":"Clinton Community College","campus_name":"Clinton Community College","total_offenses":1,"size":2249}},{"type":"Feature","geometry":{"type":"Point","coordinates":[-79.01173,33.7949658]},"properties":{"school_name":"Coastal Carolina University","campus_name":"Main Campus","total_offenses":4,"size":9335}},{"type":"Feature","geometry":{"type":"Point","coordinates":[-120.4211788,34.9432246]},"properties":{"school_name":"Coe College","campus_name":"Main Campus","total_offenses":4,"size":1367}},{"type":"Feature","geometry":{"type":"Point","coordinates":[-101.0528901,39.3775812]},"properties":{"school_name":"Colby College","campus_name":"Main Campus","total_offenses":2,"size":1863}},{"type":"Feature","geometry":{"type":"Point","coordinates":[-101.0514663,39.3777786]},"properties":{"school_name":"Colby Community College","campus_name":"Main Campus","total_offenses":1,"size":1444}},{"type":"Feature","geometry":{"type":"Point","coordinates":[-71.978033,43.412062]},"properties":{"school_name":"Colby-Sawyer College","campus_name":"Main Campus","total_offenses":2,"size":1414}},{"type":"Feature","geometry":{"type":"Point","coordinates":[-75.541671,42.822465]},"properties":{"school_name":"Colgate University","campus_name":"Main Campus","total_offenses":3,"size":2886}},{"type":"Feature","geometry":{"type":"Point","coordinates":[-79.93767179999999,32.78352210000001]},"properties":{"school_name":"College of Charleston","campus_name":"Main Campus","total_offenses":11,"size":11723}},{"type":"Feature","geometry":{"type":"Point","coordinates":[-88.0737637,41.8422676]},"properties":{"school_name":"College of DuPage","campus_name":"Main Campus","total_offenses":1,"size":26156}},{"type":"Feature","geometry":{"type":"Point","coordinates":[-73.9030113,40.9124186]},"properties":{"school_name":"College of Mount Saint Vincent","campus_name":"College of Mount Saint Vincent","total_offenses":1,"size":1951}},{"type":"Feature","geometry":{"type":"Point","coordinates":[-74.4376234,40.7809047]},"properties":{"school_name":"College of Saint Elizabeth","campus_name":"College of Saint Elizabeth","total_offenses":1,"size":1687}},{"type":"Feature","geometry":{"type":"Point","coordinates":[-71.80524640000002,42.2378888]},"properties":{"school_name":"College of the Holy Cross","campus_name":"Main Campus","total_offenses":9,"size":2926}},{"type":"Feature","geometry":{"type":"Point","coordinates":[-76.70825239999999,37.269455]},"properties":{"school_name":"College of William and Mary","campus_name":"Main Campus","total_offenses":1,"size":8258}},{"type":"Feature","geometry":{"type":"Point","coordinates":[-104.823950831401,38.8480439]},"properties":{"school_name":"Colorado College","campus_name":"Colorado College","total_offenses":7,"size":2022}},{"type":"Feature","geometry":{"type":"Point","coordinates":[-105.0276732,39.6615197]},"properties":{"school_name":"Colorado Heights University","campus_name":"Colorado Heights University","total_offenses":1,"size":127}},{"type":"Feature","geometry":{"type":"Point","coordinates":[-108.553526,39.0787545]},"properties":{"school_name":"Colorado Mesa University","campus_name":"Colorado Mesa University - Main Campus","total_offenses":2,"size":9482}},{"type":"Feature","geometry":{"type":"Point","coordinates":[-105.2225769,39.7510216]},"properties":{"school_name":"Colorado School of Mines","campus_name":"Main Campus","total_offenses":2,"size":5721}},{"type":"Feature","geometry":{"type":"Point","coordinates":[-104.5780056,38.308195]},"properties":{"school_name":"Colorado State University-Pueblo","campus_name":"Colorado State University-Pueblo","total_offenses":4,"size":6805}},{"type":"Feature","geometry":{"type":"Point","coordinates":[-92.32632009999999,38.9569623]},"properties":{"school_name":"Columbia College","campus_name":"Main Campus","total_offenses":1,"size":2667}},{"type":"Feature","geometry":{"type":"Point","coordinates":[-87.6247912,41.8742404]},"properties":{"school_name":"Columbia College-Chicago","campus_name":"Columbia College Chicago","total_offenses":5,"size":10783}},{"type":"Feature","geometry":{"type":"Point","coordinates":[-73.9609548,40.8074594]},"properties":{"school_name":"Columbia University in the City of New York","campus_name":"Morningside Campus","total_offenses":14,"size":26471}},{"type":"Feature","geometry":{"type":"Point","coordinates":[-73.94005849999999,40.8414715]},"properties":{"school_name":"Columbia University in the City of New York","campus_name":"Columbia University Medical Center","total_offenses":2,"size":26471}},{"type":"Feature","geometry":{"type":"Point","coordinates":[-84.941598,32.5015303]},"properties":{"school_name":"Columbus State University","campus_name":"Columbus State University","total_offenses":3,"size":8239}},{"type":"Feature","geometry":{"type":"Point","coordinates":[-105.0051533,39.74145449999999]},"properties":{"school_name":"Community College of Denver","campus_name":"CCD Auraria","total_offenses":8,"size":11901}},{"type":"Feature","geometry":{"type":"Point","coordinates":[-97.8400857062513,30.42100665]},"properties":{"school_name":"Concordia University-Texas","campus_name":"Concordia University Texas","total_offenses":1,"size":2568}},{"type":"Feature","geometry":{"type":"Point","coordinates":[-72.1064604723478,41.378826]},"properties":{"school_name":"Connecticut College","campus_name":"Connecticut College","total_offenses":12,"size":1933}},{"type":"Feature","geometry":{"type":"Point","coordinates":[-76.6585303225312,39.3111077]},"properties":{"school_name":"Coppin State University","campus_name":"Coppin State University","total_offenses":2,"size":3612}},{"type":"Feature","geometry":{"type":"Point","coordinates":[-91.4254455,41.9253402]},"properties":{"school_name":"Cornell College","campus_name":"Main Campus","total_offenses":3,"size":1180}},{"type":"Feature","geometry":{"type":"Point","coordinates":[-122.336233198351,47.61819595]},"properties":{"school_name":"Cornish College of the Arts","campus_name":"Cornish College of the Arts","total_offenses":2,"size":791}},{"type":"Feature","geometry":{"type":"Point","coordinates":[-121.4225574,38.4539336]},"properties":{"school_name":"Cosumnes River College","campus_name":"Cosumnes River College","total_offenses":1,"size":14143}},{"type":"Feature","geometry":{"type":"Point","coordinates":[-95.9449872,41.2654998]},"properties":{"school_name":"Creighton University","campus_name":"Main Campus","total_offenses":2,"size":7736}},{"type":"Feature","geometry":{"type":"Point","coordinates":[-73.933346,41.74568499999999]},"properties":{"school_name":"Culinary Institute of America","campus_name":"The Culinary Institute of America - Main Campus","total_offenses":3,"size":2827}},{"type":"Feature","geometry":{"type":"Point","coordinates":[-91.53354069999999,40.1290996]},"properties":{"school_name":"Culver-Stockton College","campus_name":"Main Campus","total_offenses":3,"size":769}},{"type":"Feature","geometry":{"type":"Point","coordinates":[-73.93468969999999,40.5785218]},"properties":{"school_name":"CUNY Kingsborough Community College","campus_name":"Kingsborough Community College","total_offenses":1,"size":18934}},{"type":"Feature","geometry":{"type":"Point","coordinates":[-73.8161342,40.7362689]},"properties":{"school_name":"CUNY Queens College","campus_name":"Queens College","total_offenses":4,"size":20100}},{"type":"Feature","geometry":{"type":"Point","coordinates":[-71.1148817,42.2407202]},"properties":{"school_name":"Curry College","campus_name":"Main Campus","total_offenses":1,"size":3097}},{"type":"Feature","geometry":{"type":"Point","coordinates":[-81.5015602,41.44579229999999]},"properties":{"school_name":"Cuyahoga Community College District","campus_name":"Metropolitan Campus","total_offenses":4,"size":29701}},{"type":"Feature","geometry":{"type":"Point","coordinates":[-118.0247147,33.8278598]},"properties":{"school_name":"Cypress College","campus_name":"Main Campus","total_offenses":2,"size":15144}},{"type":"Feature","geometry":{"type":"Point","coordinates":[-85.0032471,34.7733488]},"properties":{"school_name":"Dalton State College","campus_name":"Main Campus","total_offenses":2,"size":5047}},{"type":"Feature","geometry":{"type":"Point","coordinates":[-80.8431315,35.5024917]},"properties":{"school_name":"Davidson College","campus_name":"Main Campus","total_offenses":6,"size":1790}},{"type":"Feature","geometry":{"type":"Point","coordinates":[-81.04977269999999,29.2023808]},"properties":{"school_name":"Daytona State College","campus_name":"Daytona State College Daytona Beach Campus","total_offenses":2,"size":15184}},{"type":"Feature","geometry":{"type":"Point","coordinates":[-85.0952304007853,41.1232232]},"properties":{"school_name":"Dean College","campus_name":"Main Campus","total_offenses":1,"size":1322}},{"type":"Feature","geometry":{"type":"Point","coordinates":[-84.35435030000001,41.2967781]},"properties":{"school_name":"Defiance College","campus_name":"Main Campus","total_offenses":2,"size":1006}},{"type":"Feature","geometry":{"type":"Point","coordinates":[-75.5415792,39.1879258]},"properties":{"school_name":"Delaware State University","campus_name":"Main Campus","total_offenses":4,"size":4324}},{"type":"Feature","geometry":{"type":"Point","coordinates":[-75.1617527,40.297289]},"properties":{"school_name":"Delaware Valley University","campus_name":"Delaware Valley University","total_offenses":2,"size":2205}},{"type":"Feature","geometry":{"type":"Point","coordinates":[-82.5224857800385,40.07300505]},"properties":{"school_name":"Denison University","campus_name":"Denison University","total_offenses":4,"size":2339}},{"type":"Feature","geometry":{"type":"Point","coordinates":[-87.6550784,41.9239994]},"properties":{"school_name":"DePaul University","campus_name":"Main Campus - Lincoln Park Campus","total_offenses":6,"size":24966}},{"type":"Feature","geometry":{"type":"Point","coordinates":[-86.861622,39.640397]},"properties":{"school_name":"DePauw University","campus_name":"Main Campus","total_offenses":7,"size":2336}},{"type":"Feature","geometry":{"type":"Point","coordinates":[-75.37921399999999,40.538786]},"properties":{"school_name":"DeSales University","campus_name":"DeSales University (Main Campus)","total_offenses":5,"size":3245}},{"type":"Feature","geometry":{"type":"Point","coordinates":[-77.197232,40.2027214]},"properties":{"school_name":"Dickinson College","campus_name":"Main Campus","total_offenses":1,"size":2386}},{"type":"Feature","geometry":{"type":"Point","coordinates":[-73.9554794,41.0534881]},"properties":{"school_name":"Dominican College of Blauvelt","campus_name":"Main Campus","total_offenses":3,"size":2051}},{"type":"Feature","geometry":{"type":"Point","coordinates":[-87.823428,41.90161699999999]},"properties":{"school_name":"Dominican University","campus_name":"Main Campus","total_offenses":1,"size":3589}},{"type":"Feature","geometry":{"type":"Point","coordinates":[-91.808787,33.5911121]},"properties":{"school_name":"Drew University","campus_name":"Main Campus","total_offenses":1,"size":2447}},{"type":"Feature","geometry":{"type":"Point","coordinates":[-93.2862464,37.2184775]},"properties":{"school_name":"Drury University","campus_name":"Drury University","total_offenses":6,"size":5228}},{"type":"Feature","geometry":{"type":"Point","coordinates":[-80.6701999,32.4359]},"properties":{"school_name":"Duke University","campus_name":"Main Campus","total_offenses":12,"size":15386}},{"type":"Feature","geometry":{"type":"Point","coordinates":[-84.9132311423539,39.8204275]},"properties":{"school_name":"Earlham College","campus_name":"Earlham College","total_offenses":1,"size":1196}},{"type":"Feature","geometry":{"type":"Point","coordinates":[-75.173508,40.9953916]},"properties":{"school_name":"East Stroudsburg University of Pennsylvania","campus_name":"Main Campus","total_offenses":2,"size":6943}},{"type":"Feature","geometry":{"type":"Point","coordinates":[-82.3701933,36.3025374]},"properties":{"school_name":"East Tennessee State University","campus_name":"Main Campus","total_offenses":3,"size":15133}},{"type":"Feature","geometry":{"type":"Point","coordinates":[-72.2176185894789,41.72088445]},"properties":{"school_name":"Eastern Connecticut State University","campus_name":"Eastern Connecticut State University","total_offenses":4,"size":5440}},{"type":"Feature","geometry":{"type":"Point","coordinates":[-88.1753643,39.4799641]},"properties":{"school_name":"Eastern Illinois University","campus_name":"Main Campus","total_offenses":5,"size":10417}},{"type":"Feature","geometry":{"type":"Point","coordinates":[-84.301818,37.73851399999999]},"properties":{"school_name":"Eastern Kentucky University","campus_name":"Main Campus","total_offenses":10,"size":15968}},{"type":"Feature","geometry":{"type":"Point","coordinates":[-83.6242913284779,42.2505788]},"properties":{"school_name":"Eastern Michigan University","campus_name":"Eastern Michigan University","total_offenses":8,"size":23518}},{"type":"Feature","geometry":{"type":"Point","coordinates":[-82.68814499999999,27.715871]},"properties":{"school_name":"Eckerd College","campus_name":"Main Campus","total_offenses":5,"size":2337}},{"type":"Feature","geometry":{"type":"Point","coordinates":[-80.115177,41.8721304]},"properties":{"school_name":"Edinboro University of Pennsylvania","campus_name":"Main Campus","total_offenses":4,"size":7462}},{"type":"Feature","geometry":{"type":"Point","coordinates":[-118.2101624,33.8780253]},"properties":{"school_name":"El Camino College-Compton Center","campus_name":"El Camino College Compton Center","total_offenses":2,"size":7510}},{"type":"Feature","geometry":{"type":"Point","coordinates":[-118.3284419,33.8852358]},"properties":{"school_name":"El Camino Community College District","campus_name":"Main Campus","total_offenses":1,"size":23405}},{"type":"Feature","geometry":{"type":"Point","coordinates":[-96.786424502431,32.766388]},"properties":{"school_name":"El Centro College","campus_name":"El Centro College","total_offenses":1,"size":11296}},{"type":"Feature","geometry":{"type":"Point","coordinates":[-76.2133641870983,36.2800894]},"properties":{"school_name":"Elizabeth City State University","campus_name":"Elizabeth City State University","total_offenses":1,"size":2878}},{"type":"Feature","geometry":{"type":"Point","coordinates":[-76.589792,40.1503251]},"properties":{"school_name":"Elizabethtown College","campus_name":"Main Campus","total_offenses":1,"size":1910}},{"type":"Feature","geometry":{"type":"Point","coordinates":[-87.9467834,41.8962342]},"properties":{"school_name":"Elmhurst College","campus_name":"Main Campus","total_offenses":2,"size":3298}},{"type":"Feature","geometry":{"type":"Point","coordinates":[-76.81537050000001,42.0967817]},"properties":{"school_name":"Elmira College","campus_name":"Main Campus","total_offenses":2,"size":1530}},{"type":"Feature","geometry":{"type":"Point","coordinates":[-79.5028387086123,36.10652745]},"properties":{"school_name":"Elon University","campus_name":"Elon University","total_offenses":1,"size":6029}},{"type":"Feature","geometry":{"type":"Point","coordinates":[-71.0657174,42.35208689999999]},"properties":{"school_name":"Emerson College","campus_name":"Main Campus","total_offenses":4,"size":4531}},{"type":"Feature","geometry":{"type":"Point","coordinates":[-81.8291477,36.7728668]},"properties":{"school_name":"Emory & Henry College","campus_name":"Main Campus","total_offenses":4,"size":945}},{"type":"Feature","geometry":{"type":"Point","coordinates":[-84.308479,33.7974862]},"properties":{"school_name":"Emory University","campus_name":"Main Campus","total_offenses":25,"size":14236}},{"type":"Feature","geometry":{"type":"Point","coordinates":[-84.3863899,33.76857740000001]},"properties":{"school_name":"Emory University","campus_name":"Emory University Hospital Midtown Campus","total_offenses":1,"size":14236}},{"type":"Feature","geometry":{"type":"Point","coordinates":[-96.1801,38.4132728]},"properties":{"school_name":"Emporia State University","campus_name":"Emporia State University","total_offenses":1,"size":5867}},{"type":"Feature","geometry":{"type":"Point","coordinates":[-70.8426648,42.5519539]},"properties":{"school_name":"Endicott College","campus_name":"Main Campus","total_offenses":1,"size":4408}},{"type":"Feature","geometry":{"type":"Point","coordinates":[-71.1246891,42.3766193]},"properties":{"school_name":"Episcopal Divinity School","campus_name":"Episcopal Divinity School","total_offenses":1,"size":80}},{"type":"Feature","geometry":{"type":"Point","coordinates":[-74.1783153082066,40.73891285]},"properties":{"school_name":"Essex County College","campus_name":"Essex County College","total_offenses":2,"size":11979}},{"type":"Feature","geometry":{"type":"Point","coordinates":[-74.4331984,40.7765416]},"properties":{"school_name":"Fairleigh Dickinson University-College at Florham","campus_name":"Florham","total_offenses":10,"size":3067}},{"type":"Feature","geometry":{"type":"Point","coordinates":[-80.1618191,39.4843305]},"properties":{"school_name":"Fairmont State University","campus_name":"Fairmont State University","total_offenses":1,"size":4451}},{"type":"Feature","geometry":{"type":"Point","coordinates":[-78.8927139426653,35.07372775]},"properties":{"school_name":"Fayetteville State University","campus_name":"Fayetteville State University","total_offenses":5,"size":6060}},{"type":"Feature","geometry":{"type":"Point","coordinates":[-86.8047325,36.167005]},"properties":{"school_name":"Fisk University","campus_name":"Fisk University","total_offenses":1,"size":620}},{"type":"Feature","geometry":{"type":"Point","coordinates":[-71.7898178,42.5882662]},"properties":{"school_name":"Fitchburg State University","campus_name":"Main Campus","total_offenses":1,"size":6889}},{"type":"Feature","geometry":{"type":"Point","coordinates":[-84.2872378,30.4256084]},"properties":{"school_name":"Florida Agricultural and Mechanical University","campus_name":"Main Campus","total_offenses":3,"size":12057}},{"type":"Feature","geometry":{"type":"Point","coordinates":[-80.1020161,26.370617]},"properties":{"school_name":"Florida Atlantic University","campus_name":"Boca Raton","total_offenses":3,"size":29994}},{"type":"Feature","geometry":{"type":"Point","coordinates":[-80.6231696,28.0646385]},"properties":{"school_name":"Florida Institute of Technology","campus_name":"Main Campus","total_offenses":3,"size":5384}},{"type":"Feature","geometry":{"type":"Point","coordinates":[-80.3762888746807,25.75533775]},"properties":{"school_name":"Florida International University","campus_name":"Modesto A. Maidique Campus","total_offenses":4,"size":46171}},{"type":"Feature","geometry":{"type":"Point","coordinates":[-73.9852770781114,40.77105895]},"properties":{"school_name":"Fordham University","campus_name":"Main Campus","total_offenses":8,"size":15170}},{"type":"Feature","geometry":{"type":"Point","coordinates":[-73.88569869999999,40.8620404]},"properties":{"school_name":"Fordham University","campus_name":"FORDHAM UNI-LINCOLN CENTER CAMPUS","total_offenses":2,"size":15170}},{"type":"Feature","geometry":{"type":"Point","coordinates":[-99.3406595,38.8736227]},"properties":{"school_name":"Fort Hays State University","campus_name":"Main Campus","total_offenses":1,"size":13310}},{"type":"Feature","geometry":{"type":"Point","coordinates":[-71.4366781,42.2977514]},"properties":{"school_name":"Framingham State University","campus_name":"Main Campus","total_offenses":4,"size":6506}},{"type":"Feature","geometry":{"type":"Point","coordinates":[-80.6203713,40.3765186]},"properties":{"school_name":"Franciscan University of Steubenville","campus_name":"Main Campus","total_offenses":1,"size":2735}},{"type":"Feature","geometry":{"type":"Point","coordinates":[-72.05553929999999,42.7789743]},"properties":{"school_name":"Franklin Pierce University","campus_name":"Main Campus","total_offenses":4,"size":2258}},{"type":"Feature","geometry":{"type":"Point","coordinates":[-71.2636653,42.2931671]},"properties":{"school_name":"Franklin W Olin College of Engineering","campus_name":"Main Campus","total_offenses":1,"size":355}},{"type":"Feature","geometry":{"type":"Point","coordinates":[-78.9330554,39.6505499]},"properties":{"school_name":"Frostburg State University","campus_name":"Main Campus","total_offenses":2,"size":5421}},{"type":"Feature","geometry":{"type":"Point","coordinates":[-117.9182687,33.8748211]},"properties":{"school_name":"Fullerton College","campus_name":"FULLERTON COLLEGE","total_offenses":1,"size":19624}},{"type":"Feature","geometry":{"type":"Point","coordinates":[-82.43913669999999,34.9245893]},"properties":{"school_name":"Furman University","campus_name":"Main Campus","total_offenses":8,"size":2915}},{"type":"Feature","geometry":{"type":"Point","coordinates":[-76.99238749999999,38.90842200000001]},"properties":{"school_name":"Gallaudet University","campus_name":"Main Campus","total_offenses":20,"size":1580}},{"type":"Feature","geometry":{"type":"Point","coordinates":[-81.6674239,35.25022539999999]},"properties":{"school_name":"Gardner-Webb University","campus_name":"Main Campus","total_offenses":2,"size":4868}},{"type":"Feature","geometry":{"type":"Point","coordinates":[-75.3287977,40.0348327]},"properties":{"school_name":"Garrett College","campus_name":"Garrett College","total_offenses":1,"size":873}},{"type":"Feature","geometry":{"type":"Point","coordinates":[-77.3115849,38.8343675]},"properties":{"school_name":"George Mason University","campus_name":"Main Campus","total_offenses":8,"size":32961}},{"type":"Feature","geometry":{"type":"Point","coordinates":[-84.554702,38.2072849]},"properties":{"school_name":"Georgetown College","campus_name":"Georgetown College","total_offenses":3,"size":1543}},{"type":"Feature","geometry":{"type":"Point","coordinates":[-77.07225849999999,38.9076089]},"properties":{"school_name":"Georgetown University","campus_name":"Georgetown University Main Campus","total_offenses":5,"size":17357}},{"type":"Feature","geometry":{"type":"Point","coordinates":[-84.0054164,33.97908]},"properties":{"school_name":"Georgia Gwinnett College","campus_name":"Main campus","total_offenses":4,"size":9397}},{"type":"Feature","geometry":{"type":"Point","coordinates":[-81.9898848,33.4709094]},"properties":{"school_name":"Georgia Regents University","campus_name":"Main Campus","total_offenses":2,"size":null}},{"type":"Feature","geometry":{"type":"Point","coordinates":[-81.78324409999999,32.4248193]},"properties":{"school_name":"Georgia Southern University","campus_name":"Main Campus","total_offenses":2,"size":20574}},{"type":"Feature","geometry":{"type":"Point","coordinates":[-80.83322199999999,38.9348779]},"properties":{"school_name":"Glenville State College","campus_name":"Main Campus","total_offenses":2,"size":1898}},{"type":"Feature","geometry":{"type":"Point","coordinates":[-118.003554576687,33.73286745]},"properties":{"school_name":"Golden West College","campus_name":"Golden West College","total_offenses":1,"size":12333}},{"type":"Feature","geometry":{"type":"Point","coordinates":[-117.4025037,47.6681035]},"properties":{"school_name":"Gonzaga University","campus_name":"Main Campus","total_offenses":8,"size":7781}},{"type":"Feature","geometry":{"type":"Point","coordinates":[-76.59654499999999,39.408765]},"properties":{"school_name":"Goucher College","campus_name":"Main Campus","total_offenses":4,"size":2251}},{"type":"Feature","geometry":{"type":"Point","coordinates":[-93.9263378,40.6163883]},"properties":{"school_name":"Graceland University-Lamoni","campus_name":"Graceland University","total_offenses":1,"size":2222}},{"type":"Feature","geometry":{"type":"Point","coordinates":[-92.7159887,32.5242494]},"properties":{"school_name":"Grambling State University","campus_name":"GRAMBLING STATE UNIVERSITY","total_offenses":1,"size":5277}},{"type":"Feature","geometry":{"type":"Point","coordinates":[-112.128489051441,33.5131888]},"properties":{"school_name":"Grand Canyon University","campus_name":"Grand Canyon University","total_offenses":2,"size":48650}},{"type":"Feature","geometry":{"type":"Point","coordinates":[-85.8905394,42.9634911]},"properties":{"school_name":"Grand Valley State University","campus_name":"Allendale Campus","total_offenses":10,"size":24654}},{"type":"Feature","geometry":{"type":"Point","coordinates":[-93.60436179999999,41.62079149999999]},"properties":{"school_name":"Grand View University","campus_name":"Main Campus","total_offenses":1,"size":2234}},{"type":"Feature","geometry":{"type":"Point","coordinates":[-92.7201302,41.74905709999999]},"properties":{"school_name":"Grinnell College","campus_name":"Main Campus","total_offenses":18,"size":1674}},{"type":"Feature","geometry":{"type":"Point","coordinates":[-75.2351244,40.1980252]},"properties":{"school_name":"Gwynedd Mercy University","campus_name":"Main Campus","total_offenses":2,"size":2572}},{"type":"Feature","geometry":{"type":"Point","coordinates":[-93.16472499999999,44.9652951]},"properties":{"school_name":"Hamline University","campus_name":"Main Campus","total_offenses":1,"size":4683}},{"type":"Feature","geometry":{"type":"Point","coordinates":[-78.4609248,37.2403427]},"properties":{"school_name":"Hampden-Sydney College","campus_name":"Main Campus","total_offenses":2,"size":1080}},{"type":"Feature","geometry":{"type":"Point","coordinates":[-72.5323990657152,42.32459775]},"properties":{"school_name":"Hampshire College","campus_name":"HAMPSHIRE COLLEGE","total_offenses":13,"size":1461}},{"type":"Feature","geometry":{"type":"Point","coordinates":[-85.4611299,38.71415]},"properties":{"school_name":"Hanover College","campus_name":"Hanover College","total_offenses":3,"size":1123}},{"type":"Feature","geometry":{"type":"Point","coordinates":[-76.88648680000001,40.2963235]},"properties":{"school_name":"Harrisburg Area Community College-Harrisburg","campus_name":"Harrisburg Area Community College Lancaster Campus","total_offenses":1,"size":21945}},{"type":"Feature","geometry":{"type":"Point","coordinates":[-71.11666009999999,42.3770029]},"properties":{"school_name":"Harvard University","campus_name":"Cambridge Campus","total_offenses":38,"size":28147}},{"type":"Feature","geometry":{"type":"Point","coordinates":[-117.7093147,34.106067]},"properties":{"school_name":"Harvey Mudd College","campus_name":"Main Campus","total_offenses":3,"size":784}},{"type":"Feature","geometry":{"type":"Point","coordinates":[-95.23334039999999,38.9377658]},"properties":{"school_name":"Haskell Indian Nations University","campus_name":"Main campus","total_offenses":2,"size":846}},{"type":"Feature","geometry":{"type":"Point","coordinates":[-98.3298657658218,40.57805895]},"properties":{"school_name":"Hastings College","campus_name":"Main Campus","total_offenses":1,"size":1112}},{"type":"Feature","geometry":{"type":"Point","coordinates":[-75.305318,40.00665239999999]},"properties":{"school_name":"Haverford College","campus_name":"Main Campus","total_offenses":4,"size":1205}},{"type":"Feature","geometry":{"type":"Point","coordinates":[-83.16626819999999,41.1142589]},"properties":{"school_name":"Heidelberg University","campus_name":"Main Campus","total_offenses":1,"size":1262}},{"type":"Feature","geometry":{"type":"Point","coordinates":[-93.0598952,34.1278736]},"properties":{"school_name":"Henderson State University","campus_name":"Henderson State University","total_offenses":3,"size":3773}},{"type":"Feature","geometry":{"type":"Point","coordinates":[-92.4420118,35.1000469]},"properties":{"school_name":"Hendrix College","campus_name":"Main Campus","total_offenses":4,"size":1388}},{"type":"Feature","geometry":{"type":"Point","coordinates":[-79.9947325,35.9718429]},"properties":{"school_name":"High Point University","campus_name":"Main Campus","total_offenses":4,"size":4257}},{"type":"Feature","geometry":{"type":"Point","coordinates":[-76.981471,42.85897509999999]},"properties":{"school_name":"Hobart William Smith Colleges","campus_name":"Main Campus","total_offenses":2,"size":2300}},{"type":"Feature","geometry":{"type":"Point","coordinates":[-82.4581299,39.5585]},"properties":{"school_name":"Hocking College","campus_name":"Main Campus","total_offenses":1,"size":4581}},{"type":"Feature","geometry":{"type":"Point","coordinates":[-73.60323989999999,40.7134957]},"properties":{"school_name":"Hofstra University","campus_name":"Main Campus","total_offenses":6,"size":11023}},{"type":"Feature","geometry":{"type":"Point","coordinates":[-72.6503,42.19540000000001]},"properties":{"school_name":"Holyoke Community College","campus_name":"Holyoke Community College","total_offenses":1,"size":7164}},{"type":"Feature","geometry":{"type":"Point","coordinates":[-76.8774654805246,39.21151155]},"properties":{"school_name":"Howard Community College","campus_name":"Howard Community College","total_offenses":1,"size":10152}},{"type":"Feature","geometry":{"type":"Point","coordinates":[-77.0194377,38.9226843]},"properties":{"school_name":"Howard University","campus_name":"Howard University Main Campus","total_offenses":7,"size":10002}},{"type":"Feature","geometry":{"type":"Point","coordinates":[-124.08085264535,40.87635235]},"properties":{"school_name":"Humboldt State University","campus_name":"Humboldt State University","total_offenses":8,"size":8116}},{"type":"Feature","geometry":{"type":"Point","coordinates":[-68.7930918,44.8272926]},"properties":{"school_name":"Husson University","campus_name":"Husson University-Bangor","total_offenses":1,"size":3133}},{"type":"Feature","geometry":{"type":"Point","coordinates":[-97.7223212,30.2645512]},"properties":{"school_name":"Huston-Tillotson University","campus_name":"Huston-Tillotson University","total_offenses":2,"size":918}},{"type":"Feature","geometry":{"type":"Point","coordinates":[-90.24674999999999,39.730211]},"properties":{"school_name":"Illinois College","campus_name":"Main Campus","total_offenses":2,"size":987}},{"type":"Feature","geometry":{"type":"Point","coordinates":[-87.6270059,41.8348731]},"properties":{"school_name":"Illinois Institute of Technology","campus_name":"Main Campus","total_offenses":1,"size":7684}},{"type":"Feature","geometry":{"type":"Point","coordinates":[-88.99354930000001,40.5109769]},"properties":{"school_name":"Illinois State University","campus_name":"Main Campus","total_offenses":7,"size":20706}},{"type":"Feature","geometry":{"type":"Point","coordinates":[-88.99038430000002,40.49108349999999]},"properties":{"school_name":"Illinois Wesleyan University","campus_name":"Main Campus","total_offenses":2,"size":2013}},{"type":"Feature","geometry":{"type":"Point","coordinates":[-79.158242,40.6169]},"properties":{"school_name":"Indiana University of Pennsylvania-Main Campus","campus_name":"Main Campus","total_offenses":2,"size":15596}},{"type":"Feature","geometry":{"type":"Point","coordinates":[-85.10636099999999,41.1215158]},"properties":{"school_name":"Indiana University-Purdue University-Fort Wayne","campus_name":"Main Campus","total_offenses":1,"size":13771}},{"type":"Feature","geometry":{"type":"Point","coordinates":[-86.51425479999999,39.17037860000001]},"properties":{"school_name":"Indiana University-Purdue University-Indianapolis","campus_name":"IUSM  Bloomington","total_offenses":29,"size":30451}},{"type":"Feature","geometry":{"type":"Point","coordinates":[-86.176177,39.77416199999999]},"properties":{"school_name":"Indiana University-Purdue University-Indianapolis","campus_name":"IUSM  Evansville","total_offenses":6,"size":30451}},{"type":"Feature","geometry":{"type":"Point","coordinates":[-85.10636099999999,41.1215158]},"properties":{"school_name":"Indiana University-Purdue University-Indianapolis","campus_name":"IUSM  Ft. Wayne","total_offenses":1,"size":30451}},{"type":"Feature","geometry":{"type":"Point","coordinates":[-86.176177,39.77416199999999]},"properties":{"school_name":"Indiana University-Purdue University-Indianapolis","campus_name":"IUSM  Lafayette","total_offenses":2,"size":30451}},{"type":"Feature","geometry":{"type":"Point","coordinates":[-85.456223,40.18144189999999]},"properties":{"school_name":"Indiana University-Purdue University-Indianapolis","campus_name":"IUSM  Muncie","total_offenses":8,"size":30451}},{"type":"Feature","geometry":{"type":"Point","coordinates":[-86.176177,39.77416199999999]},"properties":{"school_name":"Indiana University-Purdue University-Indianapolis","campus_name":"IUSM  South Bend","total_offenses":7,"size":30451}},{"type":"Feature","geometry":{"type":"Point","coordinates":[-86.176177,39.77416199999999]},"properties":{"school_name":"Indiana University-Purdue University-Indianapolis","campus_name":"IUSM  Terre Haute","total_offenses":10,"size":30451}},{"type":"Feature","geometry":{"type":"Point","coordinates":[-94.2040198,42.4903509]},"properties":{"school_name":"Iowa Central Community College","campus_name":"Main Campus","total_offenses":2,"size":6216}},{"type":"Feature","geometry":{"type":"Point","coordinates":[-94.8177206,43.3975326]},"properties":{"school_name":"Iowa Lakes Community College","campus_name":"Main Campus","total_offenses":1,"size":2954}},{"type":"Feature","geometry":{"type":"Point","coordinates":[-95.801108,41.272829]},"properties":{"school_name":"Iowa Western Community College","campus_name":"Main Campus","total_offenses":4,"size":7367}},{"type":"Feature","geometry":{"type":"Point","coordinates":[-76.4950805,42.4221462]},"properties":{"school_name":"Ithaca College","campus_name":"Main Campus","total_offenses":3,"size":6759}},{"type":"Feature","geometry":{"type":"Point","coordinates":[-85.7663475,33.8231467]},"properties":{"school_name":"Jacksonville State University","campus_name":"Main Campus","total_offenses":2,"size":9161}},{"type":"Feature","geometry":{"type":"Point","coordinates":[-81.6073892181122,30.3546255]},"properties":{"school_name":"Jacksonville University","campus_name":"JACKSONVILLE UNIVERSITY","total_offenses":2,"size":3936}},{"type":"Feature","geometry":{"type":"Point","coordinates":[-79.2199999,42.1155556]},"properties":{"school_name":"Jamestown Community College","campus_name":"Jamestown Campus","total_offenses":1,"size":5057}},{"type":"Feature","geometry":{"type":"Point","coordinates":[-81.5314425,41.4901948]},"properties":{"school_name":"John Carroll University","campus_name":"Main Campus","total_offenses":3,"size":3583}},{"type":"Feature","geometry":{"type":"Point","coordinates":[-80.8509083,35.2327195]},"properties":{"school_name":"Johnson & Wales University-Charlotte","campus_name":"Johnson & Wales University -- Charlotte Campus","total_offenses":2,"size":2401}},{"type":"Feature","geometry":{"type":"Point","coordinates":[-104.9047653,39.7471218]},"properties":{"school_name":"Johnson & Wales University-Denver","campus_name":"Johnson & Wales University -- Denver Campus","total_offenses":2,"size":1618}},{"type":"Feature","geometry":{"type":"Point","coordinates":[-80.8576346,35.2445186]},"properties":{"school_name":"Johnson C Smith University","campus_name":"Main Campus  Johnson C. Smith University","total_offenses":1,"size":1669}},{"type":"Feature","geometry":{"type":"Point","coordinates":[-74.2342991964695,40.6786462]},"properties":{"school_name":"Kean University","campus_name":"Main Campus","total_offenses":1,"size":15391}},{"type":"Feature","geometry":{"type":"Point","coordinates":[-72.2787645,42.9273497]},"properties":{"school_name":"Keene State College","campus_name":"Keene State College","total_offenses":2,"size":5061}},{"type":"Feature","geometry":{"type":"Point","coordinates":[-82.39830789999999,40.3718965]},"properties":{"school_name":"Kenyon College","campus_name":"Main Campus","total_offenses":3,"size":1667}},{"type":"Feature","geometry":{"type":"Point","coordinates":[-90.3712054,40.943106]},"properties":{"school_name":"Knox College","campus_name":"Knox College","total_offenses":5,"size":1430}},{"type":"Feature","geometry":{"type":"Point","coordinates":[-75.7836226,40.5108171]},"properties":{"school_name":"Kutztown University of Pennsylvania","campus_name":"Main Campus","total_offenses":9,"size":9804}},{"type":"Feature","geometry":{"type":"Point","coordinates":[-92.053833,30.2164044]},"properties":{"school_name":"Lafayette College","campus_name":"Main Campus","total_offenses":2,"size":2488}},{"type":"Feature","geometry":{"type":"Point","coordinates":[-87.828913,42.24905799999999]},"properties":{"school_name":"Lake Forest College","campus_name":"Main Campus","total_offenses":1,"size":1570}},{"type":"Feature","geometry":{"type":"Point","coordinates":[-84.3627261,46.492668]},"properties":{"school_name":"Lake Superior State University","campus_name":"Lake Superior State University","total_offenses":1,"size":2590}},{"type":"Feature","geometry":{"type":"Point","coordinates":[-94.0758928326058,30.03889465]},"properties":{"school_name":"Lamar University","campus_name":"LAMAR UNIVERSITY","total_offenses":4,"size":14289}},{"type":"Feature","geometry":{"type":"Point","coordinates":[-72.5118469,42.9767642]},"properties":{"school_name":"Landmark College","campus_name":"Main Campus","total_offenses":2,"size":473}},{"type":"Feature","geometry":{"type":"Point","coordinates":[-121.797174305362,37.71274725]},"properties":{"school_name":"Las Positas College","campus_name":"Main Campus","total_offenses":2,"size":8558}},{"type":"Feature","geometry":{"type":"Point","coordinates":[-83.24979669999999,42.4755011]},"properties":{"school_name":"Lawrence Technological University","campus_name":"Lawrence Technological University","total_offenses":1,"size":4154}},{"type":"Feature","geometry":{"type":"Point","coordinates":[-95.2631377617998,38.9538529]},"properties":{"school_name":"Lawrence University","campus_name":"Main Campus","total_offenses":5,"size":1518}},{"type":"Feature","geometry":{"type":"Point","coordinates":[-76.514699,40.331103]},"properties":{"school_name":"Lebanon Valley College","campus_name":"Main Campus","total_offenses":1,"size":1984}},{"type":"Feature","geometry":{"type":"Point","coordinates":[-75.6479662,40.5967623]},"properties":{"school_name":"Lehigh University","campus_name":"Main Campus","total_offenses":4,"size":7080}},{"type":"Feature","geometry":{"type":"Point","coordinates":[-71.1171337,42.3800462]},"properties":{"school_name":"Lesley University","campus_name":"Doble Campus","total_offenses":2,"size":5944}},{"type":"Feature","geometry":{"type":"Point","coordinates":[-122.6774355,45.45240829999999]},"properties":{"school_name":"Lewis & Clark College","campus_name":"Main Campus","total_offenses":7,"size":3702}},{"type":"Feature","geometry":{"type":"Point","coordinates":[-79.17731069999999,37.3534764]},"properties":{"school_name":"Liberty University","campus_name":"Main Campus","total_offenses":2,"size":74372}},{"type":"Feature","geometry":{"type":"Point","coordinates":[-72.6943409,41.7668082]},"properties":{"school_name":"Lincoln Technical Institute-Hartford","campus_name":"Lincoln Technical Institute - Hartford","total_offenses":1,"size":582}},{"type":"Feature","geometry":{"type":"Point","coordinates":[-96.7016829,40.8177792]},"properties":{"school_name":"Lincoln University","campus_name":"Main Campus","total_offenses":3,"size":3205}},{"type":"Feature","geometry":{"type":"Point","coordinates":[-90.5031034519258,38.7875048]},"properties":{"school_name":"Lindenwood University","campus_name":"Lindenwood University","total_offenses":1,"size":11904}},{"type":"Feature","geometry":{"type":"Point","coordinates":[-85.3003361,37.1028085]},"properties":{"school_name":"Lindsey Wilson College","campus_name":"Lindsey Wilson College","total_offenses":1,"size":2677}},{"type":"Feature","geometry":{"type":"Point","coordinates":[-77.4623003,41.141808]},"properties":{"school_name":"Lock Haven University","campus_name":"Main Campus","total_offenses":2,"size":5328}},{"type":"Feature","geometry":{"type":"Point","coordinates":[-90.681399,42.50273800000001]},"properties":{"school_name":"Loras College","campus_name":"Main Campus","total_offenses":2,"size":1523}},{"type":"Feature","geometry":{"type":"Point","coordinates":[-118.2926756,34.0872424]},"properties":{"school_name":"Los Angeles City College","campus_name":"Los Angeles City College","total_offenses":3,"size":20385}},{"type":"Feature","geometry":{"type":"Point","coordinates":[-118.3056478,33.92986440000001]},"properties":{"school_name":"Los Angeles Southwest College","campus_name":"Los Angeles Southwest College","total_offenses":2,"size":6743}},{"type":"Feature","geometry":{"type":"Point","coordinates":[-78.29847769999999,36.1047481]},"properties":{"school_name":"Louisburg College","campus_name":"Main Campus","total_offenses":2,"size":706}},{"type":"Feature","geometry":{"type":"Point","coordinates":[-91.1800023,30.4132579]},"properties":{"school_name":"Louisiana State University and Agricultural & Mechanical College","campus_name":"Main Campus","total_offenses":3,"size":30225}},{"type":"Feature","geometry":{"type":"Point","coordinates":[-93.760714,32.48046899999999]},"properties":{"school_name":"Louisiana State University Health Sciences Center-Shreveport","campus_name":"Main Campus","total_offenses":1,"size":888}},{"type":"Feature","geometry":{"type":"Point","coordinates":[-83.70729299999999,41.709757]},"properties":{"school_name":"Lourdes University","campus_name":"Lourdes University","total_offenses":2,"size":2452}},{"type":"Feature","geometry":{"type":"Point","coordinates":[-118.4174046,33.97041720000001]},"properties":{"school_name":"Loyola Marymount University","campus_name":"Westchester Campus","total_offenses":2,"size":9492}},{"type":"Feature","geometry":{"type":"Point","coordinates":[-87.6553203,41.9976178]},"properties":{"school_name":"Loyola University Chicago","campus_name":"Lake Shore Campus","total_offenses":4,"size":15720}},{"type":"Feature","geometry":{"type":"Point","coordinates":[-76.61744329999999,39.3462543]},"properties":{"school_name":"Loyola University Maryland","campus_name":"Loyola University Maryland","total_offenses":2,"size":5978}},{"type":"Feature","geometry":{"type":"Point","coordinates":[-90.121721,29.93413999999999]},"properties":{"school_name":"Loyola University New Orleans","campus_name":"Main Campus","total_offenses":3,"size":4934}},{"type":"Feature","geometry":{"type":"Point","coordinates":[-91.8062533,43.311063]},"properties":{"school_name":"Luther College","campus_name":"Main Campus","total_offenses":4,"size":2473}},{"type":"Feature","geometry":{"type":"Point","coordinates":[-77.0001601,41.2452371]},"properties":{"school_name":"Lycoming College","campus_name":"Main Campus","total_offenses":2,"size":1354}},{"type":"Feature","geometry":{"type":"Point","coordinates":[-79.183153,37.4006]},"properties":{"school_name":"Lynchburg College","campus_name":"Main Campus","total_offenses":4,"size":2756}},